Route,Location,URL,"Avg Stars","Your Stars","Route Type",Rating,Pitches,Length,"Area Latitude","Area Longitude"
Toto,"The Diamond > Archangel Valley Sport and Traditional Climbing > Hatcher Pass > Anchorage & South Central Alaska > Alaska",https://www.mountainproject.com/route/106207971/toto,3.4,-1,Trad,5.10a/b,6,,61.81501,-149.243
"Sunshine Ridge","Sunshine Ridge > Seward Highway > Anchorage & South Central Alaska > Alaska",https://www.mountainproject.com/route/107135728/sunshine-ridge,3.1,-1,Trad,5.7,4,450,61.00626,-149.68649
"South West Ridge","Peak 11,300 > Denali National Park > Interior Alaska/Alaska Range > Alaska",https://www.mountainproject.com/route/105997286/south-west-ridge,4.0,-1,"Trad, Mixed, Snow, Alpine","5.8 M4 Steep Snow",1,4100,63.0026,-150.87801
"Butt Crack","Upper Pivot Point > Pivot Point > Seward Highway > Anchorage & South Central Alaska > Alaska",https://www.mountainproject.com/route/107146387/butt-crack,2.5,-1,Trad,5.7,1,25,61.0215,-149.74339
"Pivot Point","Lower Pivot Point > Pivot Point > Seward Highway > Anchorage & South Central Alaska > Alaska",https://www.mountainproject.com/route/107146395/pivot-point,3.0,-1,"Trad, Sport",5.10a,1,40,61.0215,-149.74339
"Tunnel Vision","Tunnel Vision Wall > Fairangel Gap and Valley > Archangel Valley Sport and Traditional Climbing > Hatcher Pass > Anchorage & South Central Alaska > Alaska",https://www.mountainproject.com/route/108787485/tunnel-vision,4.0,-1,Trad,5.11d,1,30,61.8198,-149.25781
"Solva Buttress","5th Tower > Mendenhall Towers > Juneau > Southeastern Alaska/Coastal Range > Alaska",https://www.mountainproject.com/route/107250306/solva-buttress,3.9,-1,"Trad, Alpine",5.8,10,1000,58.53145,-134.47641
"Green lightning","Green Gully > Archangel Valley Sport and Traditional Climbing > Hatcher Pass > Anchorage & South Central Alaska > Alaska",https://www.mountainproject.com/route/108312428/green-lightning,4.0,-1,Trad,5.10+,1,100,61.81376,-149.24389
"Physical Attraction","Zulu Wall > Archangel Valley Sport and Traditional Climbing > Hatcher Pass > Anchorage & South Central Alaska > Alaska",https://www.mountainproject.com/route/106795194/physical-attraction,3.4,-1,Trad,5.8,1,65,61.81663,-149.23829
"South Buttress - Main Tower","3rd Tower - Main > Mendenhall Towers > Juneau > Southeastern Alaska/Coastal Range > Alaska",https://www.mountainproject.com/route/111620948/south-buttress-main-tower,4.0,-1,"Trad, Alpine",5.10a,10,1200,58.53342,-134.48555
"King Size","Left Cave > Weiner Lake Routes > Wookie Wall/Weiner Lake > Anchorage & South Central Alaska > Alaska",https://www.mountainproject.com/route/109893585/king-size,4.0,-1,Trad,5.12b,2,120,61.8128,-148.1665
"The Shaft","Right Cave > Weiner Lake Routes > Wookie Wall/Weiner Lake > Anchorage & South Central Alaska > Alaska",https://www.mountainproject.com/route/109042051/the-shaft,3.9,-1,Sport,5.12a,2,110,61.8128,-148.1665
"Child Support","The White Spot > Archangel Valley Sport and Traditional Climbing > Hatcher Pass > Anchorage & South Central Alaska > Alaska",https://www.mountainproject.com/route/115186217/child-support,4.0,-1,Trad,5.11,2,220,61.81268,-149.2434
"The Brown Spot","Green Gully > Archangel Valley Sport and Traditional Climbing > Hatcher Pass > Anchorage & South Central Alaska > Alaska",https://www.mountainproject.com/route/108036764/the-brown-spot,4.0,-1,Trad,5.11d,1,120,61.81376,-149.24389
"Makin Hole aka The Dorsal Fin","Green Gully > Archangel Valley Sport and Traditional Climbing > Hatcher Pass > Anchorage & South Central Alaska > Alaska",https://www.mountainproject.com/route/109195153/makin-hole-aka-the-dorsal-fin,4.0,-1,Sport,5.10c,1,110,61.81376,-149.24389
"Aurora Slabialous","Aurora Slab > Archangel Valley Sport and Traditional Climbing > Hatcher Pass > Anchorage & South Central Alaska > Alaska",https://www.mountainproject.com/route/106801484/aurora-slabialous,4.0,-1,Trad,5.8,1,120,61.8104,-149.25
"Birds of Prey","Birds of Prey > Reed Lakes Bouldering and Climbing > Hatcher Pass > Anchorage & South Central Alaska > Alaska",https://www.mountainproject.com/route/113098033/birds-of-prey,3.9,-1,"Trad, Alpine",5.9+,1,90,61.83098,-149.18136
"Crisco Kid","Byron Glacier Wall > Portage > Anchorage & South Central Alaska > Alaska",https://www.mountainproject.com/route/109126136/crisco-kid,3.9,-1,Trad,5.10d,1,100,60.75848,-148.84843
"My Pie","Green Gully > Archangel Valley Sport and Traditional Climbing > Hatcher Pass > Anchorage & South Central Alaska > Alaska",https://www.mountainproject.com/route/108312149/my-pie,3.9,-1,Trad,5.11b,1,60,61.81376,-149.24389
"Riptide Arete","Catch The Wave > Archangel Valley Sport and Traditional Climbing > Hatcher Pass > Anchorage & South Central Alaska > Alaska",https://www.mountainproject.com/route/115329926/riptide-arete,4.0,-1,Trad,5.12a,1,80,61.81663,-149.23829
"Seismic Wave","Left Cave > Weiner Lake Routes > Wookie Wall/Weiner Lake > Anchorage & South Central Alaska > Alaska",https://www.mountainproject.com/route/108736082/seismic-wave,3.6,-1,Sport,5.11b/c,1,60,61.8128,-148.1665
"Terror Vision","The Lost Wall > Archangel Valley Sport and Traditional Climbing > Hatcher Pass > Anchorage & South Central Alaska > Alaska",https://www.mountainproject.com/route/108417460/terror-vision,4.0,-1,Trad,5.11d,2,180,61.81069,-149.24956
Rebirth,"Catch The Wave > Archangel Valley Sport and Traditional Climbing > Hatcher Pass > Anchorage & South Central Alaska > Alaska",https://www.mountainproject.com/route/108589795/rebirth,4.0,-1,Trad,5.11c,1,100,61.81663,-149.23829
"Nest Egg","Ravendale (aka Lost Crack) > West Grapefruit Rocks > Grapefruit Rocks > Fairbanks and Vicinity > Alaska",https://www.mountainproject.com/route/108586876/nest-egg,4.0,-1,Sport,5.11a/b,1,50,65.28423,-148.20122
"Straight Eight","Bear's Den > Lane Prospect Area > Archangel Valley Sport and Traditional Climbing > Hatcher Pass > Anchorage & South Central Alaska > Alaska",https://www.mountainproject.com/route/113377358/straight-eight,4.0,-1,"Trad, Alpine",5.8+,1,75,61.84442,-149.23237
"Randys roof","The Jungle Gym > Archangel Valley Sport and Traditional Climbing > Hatcher Pass > Anchorage & South Central Alaska > Alaska",https://www.mountainproject.com/route/108262372/randys-roof,3.8,-1,Sport,5.9,1,100,61.81663,-149.23829
"Orangutan Overhang","The Monolith > Archangel Valley Sport and Traditional Climbing > Hatcher Pass > Anchorage & South Central Alaska > Alaska",https://www.mountainproject.com/route/106207126/orangutan-overhang,3.5,-1,Trad,5.9,2,220,61.82504,-149.24309
Goldfinger,"The Stump > Ruth Gorge > Denali National Park > Interior Alaska/Alaska Range > Alaska",https://www.mountainproject.com/route/107682846/goldfinger,4.0,-1,"Trad, Alpine",5.11a,12,2000,62.95864,-150.69263
"Zulu Warrior","Zulu Wall > Archangel Valley Sport and Traditional Climbing > Hatcher Pass > Anchorage & South Central Alaska > Alaska",https://www.mountainproject.com/route/106821124/zulu-warrior,3.8,-1,Sport,"5.10b R",1,100,61.81663,-149.23829
"Toto to the Pinnacle link up","The Diamond > Archangel Valley Sport and Traditional Climbing > Hatcher Pass > Anchorage & South Central Alaska > Alaska",https://www.mountainproject.com/route/110933946/toto-to-the-pinnacle-link-up,4.0,-1,Trad,5.10b,1,1800,61.81501,-149.243
"Thin As Ice","SnowBird Slab/Cornerstone > Reed Lakes Bouldering and Climbing > Hatcher Pass > Anchorage & South Central Alaska > Alaska",https://www.mountainproject.com/route/106807273/thin-as-ice,3.5,-1,Sport,5.10a,2,130,61.82995,-149.19048
"Escape From the lemming Ranch","Inferno wall > Reed Lakes Bouldering and Climbing > Hatcher Pass > Anchorage & South Central Alaska > Alaska",https://www.mountainproject.com/route/110964482/escape-from-the-lemming-ranch,4.0,-1,Trad,5.10b,1,100,61.82995,-149.19048
"White Spot Roofs","Green Gully > Archangel Valley Sport and Traditional Climbing > Hatcher Pass > Anchorage & South Central Alaska > Alaska",https://www.mountainproject.com/route/113344753/white-spot-roofs,4.0,-1,Trad,5.11,3,150,61.81376,-149.24389
"Larping on Acid","Renaissance Wall > Independence Mine Bouldering and Climbing > Hatcher Pass > Anchorage & South Central Alaska > Alaska",https://www.mountainproject.com/route/117326242/larping-on-acid,4.0,-1,"Trad, Alpine",5.11b/c,1,80,61.80442,-149.2823
"SoCal DJ","Renaissance Wall > Independence Mine Bouldering and Climbing > Hatcher Pass > Anchorage & South Central Alaska > Alaska",https://www.mountainproject.com/route/117326161/socal-dj,4.0,-1,"Sport, Alpine",5.10d,1,70,61.80442,-149.2823
"Gapers on the pipe at dawn.","Two toke tower > Mile High Wall > Reed Lakes Bouldering and Climbing > Hatcher Pass > Anchorage & South Central Alaska > Alaska",https://www.mountainproject.com/route/109775837/gapers-on-the-pipe-at-dawn,4.0,-1,"Trad, Alpine",5.11,3,500,61.83447,-149.18112
"Voodoo Child","Zulu Wall > Archangel Valley Sport and Traditional Climbing > Hatcher Pass > Anchorage & South Central Alaska > Alaska",https://www.mountainproject.com/route/106821098/voodoo-child,3.7,-1,Sport,"5.10b PG13",1,95,61.81663,-149.23829
"Spice World","Ravine Lake Main Walls > Ravine Lake Climbing Areas > Anchorage & South Central Alaska > Alaska",https://www.mountainproject.com/route/112882660/spice-world,4.0,-1,Sport,5.11+,2,110,61.8049,-148.29289
"Fine Nine","Bear's Den > Lane Prospect Area > Archangel Valley Sport and Traditional Climbing > Hatcher Pass > Anchorage & South Central Alaska > Alaska",https://www.mountainproject.com/route/113377366/fine-nine,4.0,-1,"Trad, Alpine",5.9+,1,75,61.84442,-149.23237
"Thief Among Us","Arrowhead Wall > Dew Mound > Eagle River > Anchorage & South Central Alaska > Alaska",https://www.mountainproject.com/route/108276177/thief-among-us,3.8,-1,Sport,5.12c,1,65,61.20459,-149.25232
"Half Mile High","Main Wall > Mile High Wall > Reed Lakes Bouldering and Climbing > Hatcher Pass > Anchorage & South Central Alaska > Alaska",https://www.mountainproject.com/route/117390795/half-mile-high,4.0,-1,"Trad, Boulder, Alpine","5.12- V4",4,300,61.84498,-149.18451
"Little Maniac/Dead End Crack","Asgard Tor > Granite Tors > Fairbanks and Vicinity > Alaska",https://www.mountainproject.com/route/107790418/little-maniacdead-end-crack,4.0,-1,"Trad, TR","5.10 R",1,70,64.85382,-146.27091
"Incinerater Crack","Incinerator Crag > Skagway > Southeastern Alaska/Coastal Range > Alaska",https://www.mountainproject.com/route/106930017/incinerater-crack,4.0,-1,Trad,5.12a/b,1,80,59.53667,-135.32837
"Rapa Nui","Moai Wall > Independence Mine Bouldering and Climbing > Hatcher Pass > Anchorage & South Central Alaska > Alaska",https://www.mountainproject.com/route/111992723/rapa-nui,4.0,-1,"Sport, Alpine",5.10-,1,95,61.83701,-149.27792
"Walkman and Button Heads","Renaissance Wall > Independence Mine Bouldering and Climbing > Hatcher Pass > Anchorage & South Central Alaska > Alaska",https://www.mountainproject.com/route/117326306/walkman-and-button-heads,4.0,-1,"Trad, Alpine",5.11a,1,80,61.80442,-149.2823
Nineveh,"The Wedge > Anchorage & South Central Alaska > Alaska",https://www.mountainproject.com/route/110786842/nineveh,4.0,-1,"Trad, Alpine",5.11a,1,90,61.07919,-149.58605
"Piece of the Pie","Mosquito Ledge > Seward Highway > Anchorage & South Central Alaska > Alaska",https://www.mountainproject.com/route/108971055/piece-of-the-pie,4.0,-1,Sport,5.11b,1,100,60.88129,-149.03948
"Warmup Tower","Warmup Wall > Archangel Valley Sport and Traditional Climbing > Hatcher Pass > Anchorage & South Central Alaska > Alaska",https://www.mountainproject.com/route/108244699/warmup-tower,4.0,-1,Trad,5.10a/b,6,1400,61.81663,-149.23829
"Womb with a view","Bill's hill > Woznesensky Glacier > Kenai Peninsula > Alaska",https://www.mountainproject.com/route/108259967/womb-with-a-view,4.0,-1,"Sport, Alpine",5.9,1,50,59.50507,-151.0269
"Yellow Brick Road","Yellow Brick Road > Archangel Valley Sport and Traditional Climbing > Hatcher Pass > Anchorage & South Central Alaska > Alaska",https://www.mountainproject.com/route/113227384/yellow-brick-road,3.8,-1,Trad,5.9,1,120,61.80971,-149.2517
"Pulp Culture","Pulp Culture Wall > Reed Lakes Bouldering and Climbing > Hatcher Pass > Anchorage & South Central Alaska > Alaska",https://www.mountainproject.com/route/110865110/pulp-culture,3.8,-1,"Trad, Alpine",5.8+,1,180,61.82902,-149.17318
"Iron Curtain","3rd Tower - Main > Mendenhall Towers > Juneau > Southeastern Alaska/Coastal Range > Alaska",https://www.mountainproject.com/route/107089242/iron-curtain,4.0,-1,"Trad, Alpine",5.12a,12,1200,58.53342,-134.48555
"Balancing Act - West Tower","1st Tower - West Tower > Mendenhall Towers > Juneau > Southeastern Alaska/Coastal Range > Alaska",https://www.mountainproject.com/route/111623732/balancing-act-west-tower,4.0,-1,"Trad, Alpine",5.11,7,1200,58.53456,-134.49195
"Dino's Stubble Trouble","Dino Head > Seward Highway > Anchorage & South Central Alaska > Alaska",https://www.mountainproject.com/route/108190486/dinos-stubble-trouble,3.5,-1,Sport,5.10c/d,1,50,60.9834,-149.58971
"Eyes Wide Shut","Left Side Walls > Weiner Lake Routes > Wookie Wall/Weiner Lake > Anchorage & South Central Alaska > Alaska",https://www.mountainproject.com/route/117262137/eyes-wide-shut,4.0,-1,Sport,5.13,1,90,61.8172,-148.17242
"Booze Sponge","Kachemak Crack > Kenai Peninsula > Alaska",https://www.mountainproject.com/route/117550015/booze-sponge,4.0,-1,Trad,5.12,1,120,59.60906,-151.18875
Snowflake,"SnowBird Slab/Cornerstone > Reed Lakes Bouldering and Climbing > Hatcher Pass > Anchorage & South Central Alaska > Alaska",https://www.mountainproject.com/route/106806467/snowflake,3.5,-1,Trad,5.8,1,150,61.82995,-149.19048
"Dirty Thirty Arete","Ravine Lake Main Walls > Ravine Lake Climbing Areas > Anchorage & South Central Alaska > Alaska",https://www.mountainproject.com/route/114366037/dirty-thirty-arete,4.0,-1,Trad,5.10,1,140,61.8049,-148.29289
"The Pipeline","BPR Wall > Fairangel Gap and Valley > Archangel Valley Sport and Traditional Climbing > Hatcher Pass > Anchorage & South Central Alaska > Alaska",https://www.mountainproject.com/route/110696693/the-pipeline,4.0,-1,"Trad, Alpine",5.11b,1,80,61.82326,-149.26442
"North East Face (Freer's Cheers)","Bellicose Peak > Anchorage & South Central Ice Climbing > Anchorage & South Central Alaska > Alaska",https://www.mountainproject.com/route/111128466/north-east-face-freers-cheers,4.0,-1,"Trad, Ice, Snow, Alpine","5.8 WI3+ Steep Snow R",5,3000,61.24092,-149.03507
"Perpetual motion","Deep Water Bay > Anchorage & South Central Alaska > Alaska",https://www.mountainproject.com/route/110562479/perpetual-motion,4.0,-1,"Trad, Alpine",5.11a,1,2700,60.4827,-148.38633
"Brother nose best","Stadium Slab > Woznesensky Glacier > Kenai Peninsula > Alaska",https://www.mountainproject.com/route/108260027/brother-nose-best,4.0,-1,"Sport, TR, Alpine",5.10c,1,63,59.5061,-151.02361
"Code Red","Mosquito Ledge > Seward Highway > Anchorage & South Central Alaska > Alaska",https://www.mountainproject.com/route/108970922/code-red,4.0,-1,Sport,5.10c/d,1,103,60.88129,-149.03948
"Plumb-Stuzman (Northeast Rib of the North Face)","Devil's Thumb > Stikine Ice Cap > Southeastern Alaska/Coastal Range > Alaska",https://www.mountainproject.com/route/107003280/plumb-stuzman-northeast-rib-of-the-north-face,4.0,-1,"Trad, Snow, Alpine","5.10- Steep Snow",55,6000,57.091,-132.37399
"Leaf Blowers","Lookout Rock!! > Valdez Area Rock > Anchorage & South Central Alaska > Alaska",https://www.mountainproject.com/route/112099564/leaf-blowers,4.0,-1,"Sport, Alpine",5.9,1,100,61.14031,-146.22083
"Solstice Crack","Tidal Flats > Dyea > Skagway > Southeastern Alaska/Coastal Range > Alaska",https://www.mountainproject.com/route/107522319/solstice-crack,4.0,-1,Trad,5.9-,1,50,59.48953,-135.35909
"The Wave","Black Lakes Crag > Skagway > Southeastern Alaska/Coastal Range > Alaska",https://www.mountainproject.com/route/107522276/the-wave,4.0,-1,Trad,5.11a,1,40,59.50321,-135.26163
"Six Figure Bums","Republic of Boulder > Valdez Area Rock > Anchorage & South Central Alaska > Alaska",https://www.mountainproject.com/route/108607267/six-figure-bums,4.0,-1,"Sport, Alpine",5.12b,1,110,61.17251,-145.7244
"Shoot' em Up","The Tunnel Wall > Valdez Area Rock > Anchorage & South Central Alaska > Alaska",https://www.mountainproject.com/route/108604750/shoot-em-up,4.0,-1,"Sport, Alpine",5.11b,1,90,61.08487,-145.89324
"Jacobs Ladder","Tsaina River Gorge Wall > Valdez Area Rock > Anchorage & South Central Alaska > Alaska",https://www.mountainproject.com/route/108925106/jacobs-ladder,4.0,-1,"Trad, Alpine",5.10b,1,90,61.20813,-145.4701
"The Girlfriend route","Warmup Wall > Archangel Valley Sport and Traditional Climbing > Hatcher Pass > Anchorage & South Central Alaska > Alaska",https://www.mountainproject.com/route/108244691/the-girlfriend-route,4.0,-1,"Trad, Sport",5.10a/b,1,20,61.81663,-149.23829
"The Razors Edge","27 Mile > Valdez Area Rock > Anchorage & South Central Alaska > Alaska",https://www.mountainproject.com/route/107977286/the-razors-edge,4.0,-1,"Sport, Alpine",5.9,1,60,61.13066,-146.35117
"White Pillar Route #1- The Gear Gobbler","1st Tower - West Tower > Mendenhall Towers > Juneau > Southeastern Alaska/Coastal Range > Alaska",https://www.mountainproject.com/route/117135261/white-pillar-route-1-the-gear-gobbler,4.0,-1,"Trad, Alpine",5.10+,10,1200,58.53456,-134.49195
"Accident Victim","Red Gate > Seward Highway > Anchorage & South Central Alaska > Alaska",https://www.mountainproject.com/route/107137858/accident-victim,2.9,-1,Sport,5.8,1,100,61.0583,-149.7979
"Hashtag Crack","Birds of Prey > Reed Lakes Bouldering and Climbing > Hatcher Pass > Anchorage & South Central Alaska > Alaska",https://www.mountainproject.com/route/113101126/hashtag-crack,3.7,-1,"Trad, Alpine",5.8,1,85,61.83098,-149.18136
"The Sixth Sense - Sixth Tower","6th Tower > Mendenhall Towers > Juneau > Southeastern Alaska/Coastal Range > Alaska",https://www.mountainproject.com/route/114969254/the-sixth-sense-sixth-tower,4.0,-1,"Trad, Alpine",5.11,9,1000,58.53199,-134.46682
"The S.E.A.N.","The Shield > Mile High Wall > Reed Lakes Bouldering and Climbing > Hatcher Pass > Anchorage & South Central Alaska > Alaska",https://www.mountainproject.com/route/115333153/the-sean,4.0,-1,"Trad, Boulder, Alpine","5.11+ V3-4",2,220,61.83445,-149.1812
"The Growler","BPR Wall > Fairangel Gap and Valley > Archangel Valley Sport and Traditional Climbing > Hatcher Pass > Anchorage & South Central Alaska > Alaska",https://www.mountainproject.com/route/113377301/the-growler,4.0,-1,"Trad, Alpine",5.8+,1,100,61.82326,-149.26442
"Happy Happy Handcrack","3rd Tower - Main > Mendenhall Towers > Juneau > Southeastern Alaska/Coastal Range > Alaska",https://www.mountainproject.com/route/117340447/happy-happy-handcrack,4.0,-1,"Trad, Alpine",5.10,8,1500,58.53342,-134.48555
"Get your ass to the pass (GYATTP)","Ramparts Wall > Independence Mine Bouldering and Climbing > Hatcher Pass > Anchorage & South Central Alaska > Alaska",https://www.mountainproject.com/route/117319829/get-your-ass-to-the-pass-gyattp,4.0,-1,"Trad, Alpine",5.10b,2,180,61.79244,-149.29837
Breaching,"Whale Beak Buttress > Glacier Creek Drainage and Snowbird Glacier > Hatcher Pass > Anchorage & South Central Alaska > Alaska",https://www.mountainproject.com/route/113367331/breaching,4.0,-1,"Trad, Alpine",5.10-,3,234,61.83997,-149.21374
"Rampart Rampage","Ramparts Wall > Independence Mine Bouldering and Climbing > Hatcher Pass > Anchorage & South Central Alaska > Alaska",https://www.mountainproject.com/route/114815101/rampart-rampage,4.0,-1,"Trad, Alpine",5.10c,3,220,61.79244,-149.29837
"Rogers Roof","Rogers Roof > Lane Prospect Area > Archangel Valley Sport and Traditional Climbing > Hatcher Pass > Anchorage & South Central Alaska > Alaska",https://www.mountainproject.com/route/115146285/rogers-roof,4.0,-1,"Trad, Alpine",5.11+,1,,61.84318,-149.237
"Zesty Testes","Waterfall Tower > Thumb Cove > Resurrection Bay Area > Kenai Peninsula > Alaska",https://www.mountainproject.com/route/117760553/zesty-testes,4.0,-1,"Trad, Alpine","5.10b PG13",3,550,60.00963,-149.28333
"Rain, Heavy at Times","3rd Tower - Main > Mendenhall Towers > Juneau > Southeastern Alaska/Coastal Range > Alaska",https://www.mountainproject.com/route/117525487/rain-heavy-at-times,4.0,-1,"Trad, Alpine",5.10d,24,2500,58.53342,-134.48555
Sendsation,"101 Wall (Worthington) > Valdez Area Rock > Anchorage & South Central Alaska > Alaska",https://www.mountainproject.com/route/117608513/sendsation,4.0,-1,"Trad, Alpine",5.11b,1,55,61.17056,-145.72445
"Room To Believe","Right Cave > Weiner Lake Routes > Wookie Wall/Weiner Lake > Anchorage & South Central Alaska > Alaska",https://www.mountainproject.com/route/108737246/room-to-believe,3.8,-1,Sport,5.12d,1,80,61.8128,-148.1665
"The Slot","The Monolith > Archangel Valley Sport and Traditional Climbing > Hatcher Pass > Anchorage & South Central Alaska > Alaska",https://www.mountainproject.com/route/106770056/the-slot,2.8,-1,Trad,5.7,1,70,61.82504,-149.24309
"Darkside Dihedral","Darkside Dihedral Area > East Grapefruit Rocks > Grapefruit Rocks > Fairbanks and Vicinity > Alaska",https://www.mountainproject.com/route/114974170/darkside-dihedral,4.0,-1,"Sport, TR, Mixed","5.11a M6+",1,75,65.29647,-148.13926
"Hard rain","Deep Water Bay > Anchorage & South Central Alaska > Alaska",https://www.mountainproject.com/route/110562463/hard-rain,4.0,-1,"Trad, Aid, Alpine","5.9 A3",15,2700,60.4827,-148.38633
"The Snowshoes of Eddie Phay","Ramparts Wall > Independence Mine Bouldering and Climbing > Hatcher Pass > Anchorage & South Central Alaska > Alaska",https://www.mountainproject.com/route/117314186/the-snowshoes-of-eddie-phay,4.0,-1,"Trad, Alpine",5.10a,1,80,61.79244,-149.29837
"South Ridge","Hobbit's Footstool > Little Switzerland > Denali National Park > Interior Alaska/Alaska Range > Alaska",https://www.mountainproject.com/route/109189721/south-ridge,4.0,-1,"Trad, Alpine",5.8,3,500,62.7174,-151.2061
"Waves of Pleasure","The White Spot > Archangel Valley Sport and Traditional Climbing > Hatcher Pass > Anchorage & South Central Alaska > Alaska",https://www.mountainproject.com/route/117614322/waves-of-pleasure,4.0,-1,Trad,5.11,1,150,61.81268,-149.2434
"Stellar Cruise","The Mine > Independence Mine Bouldering and Climbing > Hatcher Pass > Anchorage & South Central Alaska > Alaska",https://www.mountainproject.com/route/114947371/stellar-cruise,4.0,-1,"Trad, Alpine",5.10b,1,,61.80328,-149.29063
"Under the Drip","The Mine > Independence Mine Bouldering and Climbing > Hatcher Pass > Anchorage & South Central Alaska > Alaska",https://www.mountainproject.com/route/114940383/under-the-drip,4.0,-1,"Trad, Alpine",5.10d,1,,61.80328,-149.29063
"The Big Eddie","Ramparts Wall > Independence Mine Bouldering and Climbing > Hatcher Pass > Anchorage & South Central Alaska > Alaska",https://www.mountainproject.com/route/117314127/the-big-eddie,4.0,-1,"Trad, Alpine",5.10c,1,70,61.79244,-149.29837
"Resignation arete","4th Tower > Mendenhall Towers > Juneau > Southeastern Alaska/Coastal Range > Alaska",https://www.mountainproject.com/route/117252375/resignation-arete,4.0,-1,"Trad, Alpine",5.11,9,1100,58.53157,-134.47722
Goldrunner,"The Mine > Independence Mine Bouldering and Climbing > Hatcher Pass > Anchorage & South Central Alaska > Alaska",https://www.mountainproject.com/route/115133989/goldrunner,4.0,-1,"Trad, Alpine",5.10d,1,,61.80328,-149.29063
"Fingers to hands","Worthington main buttress ( North Face) > Valdez Area Rock > Anchorage & South Central Alaska > Alaska",https://www.mountainproject.com/route/117710681/fingers-to-hands,4.0,-1,"Trad, Alpine",5.11c,2,120,61.17064,-145.72609
"Layback to Jams","Worthington main buttress ( North Face) > Valdez Area Rock > Anchorage & South Central Alaska > Alaska",https://www.mountainproject.com/route/117710697/layback-to-jams,4.0,-1,"Trad, Alpine",5.10b,2,120,61.17064,-145.72609
"Zig Zag Crack","Hobbit's Footstool > Little Switzerland > Denali National Park > Interior Alaska/Alaska Range > Alaska",https://www.mountainproject.com/route/111897296/zig-zag-crack,4.0,-1,"Trad, Alpine",5.10-,1,80,62.7174,-151.2061
Tulugaq,"Ravendale (aka Lost Crack) > West Grapefruit Rocks > Grapefruit Rocks > Fairbanks and Vicinity > Alaska",https://www.mountainproject.com/route/109236308/tulugaq,4.0,-1,Sport,5.13,1,65,65.28423,-148.20122
"Swayze Express","19 Mile Wall > Valdez Area Rock > Anchorage & South Central Alaska > Alaska",https://www.mountainproject.com/route/112922146/swayze-express,4.0,-1,"Trad, Alpine",5.10a,1,100,61.11544,-145.80243
"Layback to Future","Worthington main buttress ( North Face) > Valdez Area Rock > Anchorage & South Central Alaska > Alaska",https://www.mountainproject.com/route/117712371/layback-to-future,4.0,-1,"Trad, Alpine",5.11c,2,140,61.17064,-145.72609
"Lichen it","Eyes of the World > Tee Harbor > Juneau > Southeastern Alaska/Coastal Range > Alaska",https://www.mountainproject.com/route/117658343/lichen-it,4.0,-1,"Sport, TR",5.9+,1,90,58.4124,-134.7525
"The tennis shoe cracks","Glacier Creek Bouldering > Glacier Creek Drainage and Snowbird Glacier > Hatcher Pass > Anchorage & South Central Alaska > Alaska",https://www.mountainproject.com/route/110782055/the-tennis-shoe-cracks,4.0,-1,Trad,5.9,1,30,61.59474,-149.44214
"Shell Shock","Ravendale (aka Lost Crack) > West Grapefruit Rocks > Grapefruit Rocks > Fairbanks and Vicinity > Alaska",https://www.mountainproject.com/route/108586867/shell-shock,4.0,-1,Sport,5.11d,1,50,65.28423,-148.20122
"The Stash Box","Glacier Creek Bouldering > Glacier Creek Drainage and Snowbird Glacier > Hatcher Pass > Anchorage & South Central Alaska > Alaska",https://www.mountainproject.com/route/110782071/the-stash-box,4.0,-1,Trad,5.10,1,20,61.59474,-149.44214
"Shafted By A Stoner","Right Cave > Weiner Lake Routes > Wookie Wall/Weiner Lake > Anchorage & South Central Alaska > Alaska",https://www.mountainproject.com/route/109894113/shafted-by-a-stoner,4.0,-1,Trad,5.12a,1,90,61.8128,-148.1665
Butterfly,"Peanut gullery > Woznesensky Glacier > Kenai Peninsula > Alaska",https://www.mountainproject.com/route/108259982/butterfly,4.0,-1,"Sport, Alpine","5.11 PG13",1,60,59.50553,-151.02905
"Right-a-Way Gone Wrong","The Tunnel Wall > Valdez Area Rock > Anchorage & South Central Alaska > Alaska",https://www.mountainproject.com/route/108604965/right-a-way-gone-wrong,4.0,-1,"Sport, Alpine",5.11c,1,92,61.08487,-145.89324
"Elitist's Overcompensation","Republic of Boulder > Valdez Area Rock > Anchorage & South Central Alaska > Alaska",https://www.mountainproject.com/route/108607297/elitists-overcompensation,4.0,-1,"Sport, Alpine",5.11c,1,90,61.17251,-145.7244
"Chain Letters to the Dalai Lama","Republic of Boulder > Valdez Area Rock > Anchorage & South Central Alaska > Alaska",https://www.mountainproject.com/route/108607319/chain-letters-to-the-dalai-lama,4.0,-1,"Sport, Alpine",5.11c,1,80,61.17251,-145.7244
"No Brainer","Upper Sky Pilot > Sky Pilot Areas > Seward Highway > Anchorage & South Central Alaska > Alaska",https://www.mountainproject.com/route/108954126/no-brainer,4.0,-1,Sport,5.10a,1,,61.00379,-149.6704
"Nobody jones","Rubble Pile Crag > West Grapefruit Rocks > Grapefruit Rocks > Fairbanks and Vicinity > Alaska",https://www.mountainproject.com/route/108586836/nobody-jones,4.0,-1,Sport,5.13a,1,65,65.28717,-148.19013
"White Face","Ravendale (aka Lost Crack) > West Grapefruit Rocks > Grapefruit Rocks > Fairbanks and Vicinity > Alaska",https://www.mountainproject.com/route/108586882/white-face,4.0,-1,Sport,5.11b,1,40,65.28423,-148.20122
"Yippie (Yuppie Hippie)","Republic of Boulder > Valdez Area Rock > Anchorage & South Central Alaska > Alaska",https://www.mountainproject.com/route/108607070/yippie-yuppie-hippie,4.0,-1,"Sport, Alpine",5.11c,1,90,61.17251,-145.7244
"Unknown 3","Blueberry Block > Valdez Area Rock > Anchorage & South Central Alaska > Alaska",https://www.mountainproject.com/route/107218236/unknown-3,4.0,-1,"Trad, Alpine",5.11c,1,80,61.12395,-145.67363
"Double zero","Gold Cord Lake > Independence Mine Bouldering and Climbing > Hatcher Pass > Anchorage & South Central Alaska > Alaska",https://www.mountainproject.com/route/117946929/double-zero,4.0,-1,"Trad, Alpine",5.10,1,60,61.79741,-149.26286
"Too Much Fun for You","The Monolith > Archangel Valley Sport and Traditional Climbing > Hatcher Pass > Anchorage & South Central Alaska > Alaska",https://www.mountainproject.com/route/109137980/too-much-fun-for-you,3.6,-1,Sport,"5.10b PG13",1,180,61.82504,-149.24309
"Zig Zag Route","Ravine Lake Main Walls > Ravine Lake Climbing Areas > Anchorage & South Central Alaska > Alaska",https://www.mountainproject.com/route/109238294/zig-zag-route,3.6,-1,Sport,5.10c,2,,61.8049,-148.29289
"Dino Who?","Dino Head > Seward Highway > Anchorage & South Central Alaska > Alaska",https://www.mountainproject.com/route/108190501/dino-who,3.5,-1,Sport,5.11c,1,40,60.9834,-149.58971
Rise,"The High Dive > Reed Lakes Bouldering and Climbing > Hatcher Pass > Anchorage & South Central Alaska > Alaska",https://www.mountainproject.com/route/106801271/rise,3.5,-1,Trad,5.9,3,350,61.82995,-149.19048
"Break the Chains","Right Cave > Weiner Lake Routes > Wookie Wall/Weiner Lake > Anchorage & South Central Alaska > Alaska",https://www.mountainproject.com/route/108862039/break-the-chains,3.6,-1,Sport,5.12a/b,3,100,61.8128,-148.1665
"Vein of Gold","The Monolith > Archangel Valley Sport and Traditional Climbing > Hatcher Pass > Anchorage & South Central Alaska > Alaska",https://www.mountainproject.com/route/110618752/vein-of-gold,3.6,-1,Trad,5.10c,1,125,61.82504,-149.24309
"The Apology Foot Rub","The Crack Garden > The Crack Garden > Reed Lakes Bouldering and Climbing > Hatcher Pass > Anchorage & South Central Alaska > Alaska",https://www.mountainproject.com/route/111999979/the-apology-foot-rub,3.7,-1,"Trad, Alpine",5.8,1,115,61.81689,-149.20903
Gateway,"Catch The Wave > Archangel Valley Sport and Traditional Climbing > Hatcher Pass > Anchorage & South Central Alaska > Alaska",https://www.mountainproject.com/route/115314550/gateway,3.7,-1,Trad,5.9,2,160,61.81663,-149.23829
"12 Pack and a Prayer","PBR Wall > Archangel Valley Sport and Traditional Climbing > Hatcher Pass > Anchorage & South Central Alaska > Alaska",https://www.mountainproject.com/route/115185816/12-pack-and-a-prayer,3.8,-1,Trad,5.10+,3,280,61.81296,-149.24454
"African Dreams","Tin Can Rock > Fairangel Gap and Valley > Archangel Valley Sport and Traditional Climbing > Hatcher Pass > Anchorage & South Central Alaska > Alaska",https://www.mountainproject.com/route/108255983/african-dreams,3.8,-1,Sport,5.10b/c,1,50,61.81627,-149.27002
"Mental Health Project","Ravine Lake Main Walls > Ravine Lake Climbing Areas > Anchorage & South Central Alaska > Alaska",https://www.mountainproject.com/route/108240690/mental-health-project,3.3,-1,Trad,5.9-,1,135,61.8049,-148.29289
"Blue Berry Crack","Green Gully > Archangel Valley Sport and Traditional Climbing > Hatcher Pass > Anchorage & South Central Alaska > Alaska",https://www.mountainproject.com/route/108036720/blue-berry-crack,3.8,-1,Trad,5.11c,1,50,61.81376,-149.24389
"Southwest Ridge","Mt. Francis > Denali National Park > Interior Alaska/Alaska Range > Alaska",https://www.mountainproject.com/route/110994020/southwest-ridge,3.6,-1,"Trad, Snow, Alpine","5.8 Steep Snow",1,3600,63.0649,-151.17191
"A Stoner Among Us","Right Cave > Weiner Lake Routes > Wookie Wall/Weiner Lake > Anchorage & South Central Alaska > Alaska",https://www.mountainproject.com/route/108926430/a-stoner-among-us,3.8,-1,Sport,5.12b/c,2,75,61.8128,-148.1665
"Pumped Like A Horror","Upper Center Wall > Purinton Creek > Anchorage & South Central Alaska > Alaska",https://www.mountainproject.com/route/109210763/pumped-like-a-horror,3.8,-1,Sport,5.12a,1,,61.81266,-148.14126
"Fillet Toe","Gorilla's Head > East Grapefruit Rocks > Grapefruit Rocks > Fairbanks and Vicinity > Alaska",https://www.mountainproject.com/route/108587099/fillet-toe,3.8,-1,Sport,5.10d,1,35,65.35648,-147.01109
"Road Warrior","Sunshine Ridge > Seward Highway > Anchorage & South Central Alaska > Alaska",https://www.mountainproject.com/route/106454171/road-warrior,2.2,-1,Sport,5.9,1,,61.00626,-149.68649
Offwide,"Catch The Wave > Archangel Valley Sport and Traditional Climbing > Hatcher Pass > Anchorage & South Central Alaska > Alaska",https://www.mountainproject.com/route/115314565/offwide,3.6,-1,Trad,5.9,2,160,61.81663,-149.23829
"West Ridge","Mt Hunter > Denali National Park > Interior Alaska/Alaska Range > Alaska",https://www.mountainproject.com/route/113156880/west-ridge,3.7,-1,"Trad, Mixed, Ice, Snow, Alpine","5.8 WI3+ M4 Steep Snow",1,8000,63.0649,-151.17191
Timeless,"The Wedge > Anchorage & South Central Alaska > Alaska",https://www.mountainproject.com/route/110787215/timeless,3.6,-1,"Trad, Alpine",5.9+,2,210,61.07919,-149.58605
Epidemic,"Tin Can Rock > Fairangel Gap and Valley > Archangel Valley Sport and Traditional Climbing > Hatcher Pass > Anchorage & South Central Alaska > Alaska",https://www.mountainproject.com/route/108255976/epidemic,3.6,-1,Sport,5.11+,1,50,61.81627,-149.27002
Stonemaster,"Dew Mound - Lower Wall > Dew Mound > Eagle River > Anchorage & South Central Alaska > Alaska",https://www.mountainproject.com/route/108189806/stonemaster,3.3,-1,Sport,5.10c,2,,61.20459,-149.25232
"Great Lobster Dispute","Goats Head Soup > Seward Highway > Anchorage & South Central Alaska > Alaska",https://www.mountainproject.com/route/108170434/great-lobster-dispute,3.0,-1,Sport,5.10a,1,60,60.98632,-149.61141
"Eagle Reefer","Kiliak Wall > Eagle River > Anchorage & South Central Alaska > Alaska",https://www.mountainproject.com/route/108340823/eagle-reefer,3.3,-1,Sport,5.10a,1,110,61.21059,-149.24977
"Turecki's Ten","Bear's Den > Lane Prospect Area > Archangel Valley Sport and Traditional Climbing > Hatcher Pass > Anchorage & South Central Alaska > Alaska",https://www.mountainproject.com/route/113377349/tureckis-ten,3.6,-1,"Trad, Alpine",5.10a,1,75,61.84442,-149.23237
"Black Lung","Creekside Cliff > Purinton Creek > Anchorage & South Central Alaska > Alaska",https://www.mountainproject.com/route/109200558/black-lung,3.6,-1,Trad,5.11a,1,,61.81175,-148.13854
"Elite Eight","Upper Pivot Point > Pivot Point > Seward Highway > Anchorage & South Central Alaska > Alaska",https://www.mountainproject.com/route/107151139/elite-eight,2.3,-1,Sport,5.8,1,30,61.0215,-149.74339
"Blueberry Crack","Blueberry Block > Valdez Area Rock > Anchorage & South Central Alaska > Alaska",https://www.mountainproject.com/route/107215829/blueberry-crack,3.6,-1,"Trad, Alpine",5.10,1,50,61.12395,-145.67363
"Deadbeat Dad","The White Spot > Archangel Valley Sport and Traditional Climbing > Hatcher Pass > Anchorage & South Central Alaska > Alaska",https://www.mountainproject.com/route/114978600/deadbeat-dad,3.7,-1,Trad,5.10+,2,200,61.81268,-149.2434
"South Face","Middle Troll > Little Switzerland > Denali National Park > Interior Alaska/Alaska Range > Alaska",https://www.mountainproject.com/route/106501768/south-face,3.3,-1,"Trad, Snow, Alpine","5.8 Mod. Snow",6,1300,62.7014,-151.1787
"Quartzsite's Strike","Lookout Rock!! > Valdez Area Rock > Anchorage & South Central Alaska > Alaska",https://www.mountainproject.com/route/112099641/quartzsites-strike,3.7,-1,"Sport, Alpine",5.11a,1,60,61.14031,-146.22083
"Unknown Legend","Rubble Pile Crag > West Grapefruit Rocks > Grapefruit Rocks > Fairbanks and Vicinity > Alaska",https://www.mountainproject.com/route/106010608/unknown-legend,3.7,-1,"Sport, TR",5.11c,1,55,65.28717,-148.19013
"Ant Eater","Tsaina River Gorge Wall > Valdez Area Rock > Anchorage & South Central Alaska > Alaska",https://www.mountainproject.com/route/108923964/ant-eater,3.7,-1,"Trad, Alpine",5.10b,1,90,61.20813,-145.4701
"God's Country","The Guardian > Archangel Valley Sport and Traditional Climbing > Hatcher Pass > Anchorage & South Central Alaska > Alaska",https://www.mountainproject.com/route/113227100/gods-country,3.5,-1,"Trad, Alpine",5.10a,2,180,61.81104,-149.24876
Sparklehorse,"Kiliak Wall > Eagle River > Anchorage & South Central Alaska > Alaska",https://www.mountainproject.com/route/111128022/sparklehorse,3.5,-1,Trad,"5.10a PG13",2,85,61.21059,-149.24977
"Icky Thump","Byron Glacier Wall > Portage > Anchorage & South Central Alaska > Alaska",https://www.mountainproject.com/route/109126269/icky-thump,3.5,-1,Sport,5.11,1,55,60.75848,-148.84843
"Twinkle Toes","Twinkle Toes Area > Seward Highway > Anchorage & South Central Alaska > Alaska",https://www.mountainproject.com/route/107944957/twinkle-toes,3.3,-1,Trad,5.10c,1,80,61.0583,-149.7979
"Matt's Crack","Tunnel Vision Wall > Fairangel Gap and Valley > Archangel Valley Sport and Traditional Climbing > Hatcher Pass > Anchorage & South Central Alaska > Alaska",https://www.mountainproject.com/route/112110136/matts-crack,3.4,-1,Trad,5.8+,1,135,61.8198,-149.25781
Festoon,"The Diamond > Archangel Valley Sport and Traditional Climbing > Hatcher Pass > Anchorage & South Central Alaska > Alaska",https://www.mountainproject.com/route/108221052/festoon,3.3,-1,Trad,5.10a/b,1,70,61.81501,-149.243
"The Vertical Gardener","The Crack Garden > The Crack Garden > Reed Lakes Bouldering and Climbing > Hatcher Pass > Anchorage & South Central Alaska > Alaska",https://www.mountainproject.com/route/111999976/the-vertical-gardener,3.4,-1,"Trad, Alpine",5.8,1,115,61.81689,-149.20903
"Dreams Never End","Left Cave > Weiner Lake Routes > Wookie Wall/Weiner Lake > Anchorage & South Central Alaska > Alaska",https://www.mountainproject.com/route/108762424/dreams-never-end,3.3,-1,Sport,5.11c/d,3,,61.8128,-148.1665
Shiner,"Goats Head Soup > Seward Highway > Anchorage & South Central Alaska > Alaska",https://www.mountainproject.com/route/108158360/shiner,2.7,-1,Sport,5.10b,1,,60.98632,-149.61141
"Double D(ihedral)","The High Dive > Reed Lakes Bouldering and Climbing > Hatcher Pass > Anchorage & South Central Alaska > Alaska",https://www.mountainproject.com/route/113446744/double-dihedral,3.5,-1,Trad,5.10-,2,280,61.82995,-149.19048
"Ivan the Impaler","Independence Crag > Independence Mine Bouldering and Climbing > Hatcher Pass > Anchorage & South Central Alaska > Alaska",https://www.mountainproject.com/route/111928446/ivan-the-impaler,3.5,-1,"Trad, Alpine",5.10+,1,100,61.79225,-149.29476
"3rd Generation","3rd Generation Wall > Archangel Valley Sport and Traditional Climbing > Hatcher Pass > Anchorage & South Central Alaska > Alaska",https://www.mountainproject.com/route/108036836/3rd-generation,3.5,-1,Trad,5.12,1,75,61.81663,-149.23829
IXT,"Creekside Cliff > Purinton Creek > Anchorage & South Central Alaska > Alaska",https://www.mountainproject.com/route/109151885/ixt,3.5,-1,Trad,5.11b,1,,61.81175,-148.13854
"Rope Eater Dihedral","Creekside Cliff > Purinton Creek > Anchorage & South Central Alaska > Alaska",https://www.mountainproject.com/route/109151518/rope-eater-dihedral,3.5,-1,Trad,5.9,1,,61.81175,-148.13854
"Truth of the Matter","Weekender Wall > Ravine Lake Climbing Areas > Anchorage & South Central Alaska > Alaska",https://www.mountainproject.com/route/109239532/truth-of-the-matter,3.5,-1,Sport,5.12c,1,45,61.80554,-148.30643
"Creation Science","Morning Star Gully > Seward Highway > Anchorage & South Central Alaska > Alaska",https://www.mountainproject.com/route/108950435/creation-science,3.5,-1,Sport,5.11a,2,,61.00682,-149.68568
"Kruezer doctorman","4 mile crag > Skagway > Southeastern Alaska/Coastal Range > Alaska",https://www.mountainproject.com/route/106971510/kruezer-doctorman,3.5,-1,Trad,5.10a/b,1,40,59.47418,-135.34673
"No Whiners","Goats Head Soup > Seward Highway > Anchorage & South Central Alaska > Alaska",https://www.mountainproject.com/route/108158355/no-whiners,2.4,-1,Sport,5.10a,1,,60.98632,-149.61141
Thrombosis,"Sunshine Ridge > Seward Highway > Anchorage & South Central Alaska > Alaska",https://www.mountainproject.com/route/106454177/thrombosis,2.9,-1,Sport,5.10b,1,,61.00626,-149.68649
"New School","The Jungle Gym > Archangel Valley Sport and Traditional Climbing > Hatcher Pass > Anchorage & South Central Alaska > Alaska",https://www.mountainproject.com/route/108342056/new-school,3.3,-1,"Trad, Sport",5.9,1,70,61.81663,-149.23829
"Catholic Schoolgirls","Black Lakes Crag > Skagway > Southeastern Alaska/Coastal Range > Alaska",https://www.mountainproject.com/route/110564537/catholic-schoolgirls,3.3,-1,Sport,5.9+,1,90,59.50321,-135.26163
"South of Heaven","Right Side Walls > Weiner Lake Routes > Wookie Wall/Weiner Lake > Anchorage & South Central Alaska > Alaska",https://www.mountainproject.com/route/110393926/south-of-heaven,3.4,-1,Sport,5.11+,2,130,61.81071,-148.15916
Onomatopoeia,"Weekender Wall > Ravine Lake Climbing Areas > Anchorage & South Central Alaska > Alaska",https://www.mountainproject.com/route/109239114/onomatopoeia,3.3,-1,Sport,5.12a,1,,61.80554,-148.30643
"As good as it gets","The Jungle Gym > Archangel Valley Sport and Traditional Climbing > Hatcher Pass > Anchorage & South Central Alaska > Alaska",https://www.mountainproject.com/route/108244712/as-good-as-it-gets,3.1,-1,"Trad, Sport",5.9,1,20,61.81663,-149.23829
"Stoned Monkeys","Creekside Cliff > Purinton Creek > Anchorage & South Central Alaska > Alaska",https://www.mountainproject.com/route/109198070/stoned-monkeys,3.3,-1,Trad,5.10a,2,,61.81175,-148.13854
"Unknown 1","Mosquito Ledge > Seward Highway > Anchorage & South Central Alaska > Alaska",https://www.mountainproject.com/route/108970814/unknown-1,3.4,-1,Sport,5.11-,1,100,60.88129,-149.03948
"Caustic Community Crack","The Crack Garden > The Crack Garden > Reed Lakes Bouldering and Climbing > Hatcher Pass > Anchorage & South Central Alaska > Alaska",https://www.mountainproject.com/route/111999996/caustic-community-crack,3.3,-1,"Trad, Alpine",5.7,1,110,61.81689,-149.20903
"The RP boys","The Jungle Gym > Archangel Valley Sport and Traditional Climbing > Hatcher Pass > Anchorage & South Central Alaska > Alaska",https://www.mountainproject.com/route/108342086/the-rp-boys,3.3,-1,Trad,5.9+,1,70,61.81663,-149.23829
"Canadian Heat Wave","Panorama Point > Valdez Area Rock > Anchorage & South Central Alaska > Alaska",https://www.mountainproject.com/route/111778855/canadian-heat-wave,3.3,-1,"Sport, Alpine",5.11a,1,55,61.14021,-146.22031
"Even Smoke Jumpers Get the Blues","Rubble Pile Crag > West Grapefruit Rocks > Grapefruit Rocks > Fairbanks and Vicinity > Alaska",https://www.mountainproject.com/route/106838894/even-smoke-jumpers-get-the-blues,3.3,-1,"Sport, TR",5.10c,1,55,65.28717,-148.19013
"Catch a Fire","Right Side Walls > Weiner Lake Routes > Wookie Wall/Weiner Lake > Anchorage & South Central Alaska > Alaska",https://www.mountainproject.com/route/108976555/catch-a-fire,3.3,-1,Sport,5.11d,3,250,61.81071,-148.15916
Alienizer,"Upper Right Wall > Purinton Creek > Anchorage & South Central Alaska > Alaska",https://www.mountainproject.com/route/109206998/alienizer,3.3,-1,Sport,5.10b,1,,61.81244,-148.1403
Giradelli,"Main Wall > Mount Prindle > Fairbanks and Vicinity > Alaska",https://www.mountainproject.com/route/108226982/giradelli,3.1,-1,"Trad, Alpine",5.9,6,900,65.4655,-146.4391
"West Ridge","Cracked Ice > Thompson Pass > Valdez > Anchorage & South Central Ice Climbing > Anchorage & South Central Alaska > Alaska",https://www.mountainproject.com/route/112049589/west-ridge,3.5,-1,"Trad, Ice, Snow","5.7 AI2-3 Steep Snow",1,1800,61.15739,-145.58716
"Unknown 5.10a","Wishbone > Fairangel Walls > Archangel Valley Sport and Traditional Climbing > Hatcher Pass > Anchorage & South Central Alaska > Alaska",https://www.mountainproject.com/route/113323260/unknown-510a,3.5,-1,Trad,5.10a,1,110,61.82717,-149.24447
"Stan Deazy","Wishbone > Fairangel Walls > Archangel Valley Sport and Traditional Climbing > Hatcher Pass > Anchorage & South Central Alaska > Alaska",https://www.mountainproject.com/route/113323215/stan-deazy,3.5,-1,Trad,5.10a,1,70,61.82717,-149.24447
"The Quartz Crack","Didilkama > Glacier Creek Drainage and Snowbird Glacier > Hatcher Pass > Anchorage & South Central Alaska > Alaska",https://www.mountainproject.com/route/109700745/the-quartz-crack,3.5,-1,"Trad, Alpine",5.11a,3,420,61.83791,-149.21486
Astroclam,"Fatal Attraction Wall > Reed Lakes Bouldering and Climbing > Hatcher Pass > Anchorage & South Central Alaska > Alaska",https://www.mountainproject.com/route/113557463/astroclam,3.5,-1,Sport,5.10b,1,80,61.82882,-149.17199
"Spotted Dick","Byron Glacier Wall > Portage > Anchorage & South Central Alaska > Alaska",https://www.mountainproject.com/route/109126517/spotted-dick,3.5,-1,Sport,5.13,1,90,60.75848,-148.84843
"Coitus Interuptus","The High Dive > Reed Lakes Bouldering and Climbing > Hatcher Pass > Anchorage & South Central Alaska > Alaska",https://www.mountainproject.com/route/110795811/coitus-interuptus,3.5,-1,Sport,5.9,1,70,61.82995,-149.19048
"Chocolate Crack","Tidal Flats > Dyea > Skagway > Southeastern Alaska/Coastal Range > Alaska",https://www.mountainproject.com/route/110906855/chocolate-crack,3.5,-1,Trad,5.9+,1,55,59.48953,-135.35909
"Killing Aphrodite","The High Dive > Reed Lakes Bouldering and Climbing > Hatcher Pass > Anchorage & South Central Alaska > Alaska",https://www.mountainproject.com/route/113620736/killing-aphrodite,3.5,-1,Trad,5.10b,2,250,61.82995,-149.19048
"My 4-Legged Vulture","Monkey Face > Reed Lakes Bouldering and Climbing > Hatcher Pass > Anchorage & South Central Alaska > Alaska",https://www.mountainproject.com/route/113244944/my-4-legged-vulture,3.5,-1,"Trad, Alpine",5.10a,1,95,61.84429,-149.16181
"Mauled by a Marmot","Monkey Face > Reed Lakes Bouldering and Climbing > Hatcher Pass > Anchorage & South Central Alaska > Alaska",https://www.mountainproject.com/route/113245012/mauled-by-a-marmot,3.5,-1,"Trad, Alpine",5.10b,1,100,61.84429,-149.16181
"King of the Jungle","Tarzan's Temple > Archangel Valley Sport and Traditional Climbing > Hatcher Pass > Anchorage & South Central Alaska > Alaska",https://www.mountainproject.com/route/108036815/king-of-the-jungle,3.5,-1,Trad,5.11c,1,100,61.81326,-149.2683
"Trustafarian (Rasta With a Trust Fund)","Republic of Boulder > Valdez Area Rock > Anchorage & South Central Alaska > Alaska",https://www.mountainproject.com/route/108606890/trustafarian-rasta-with-a-trust-fund,3.5,-1,"Sport, Alpine",5.12a,1,90,61.17251,-145.7244
"Crimptastic Ride","Valdez Glacier Campground > Valdez Area Rock > Anchorage & South Central Alaska > Alaska",https://www.mountainproject.com/route/111218516/crimptastic-ride,3.5,-1,"Sport, Alpine",5.12b,1,40,61.13908,-146.20546
"Slippery When Wet","Byron Glacier Wall > Portage > Anchorage & South Central Alaska > Alaska",https://www.mountainproject.com/route/109123871/slippery-when-wet,3.5,-1,Sport,5.10b,2,,60.75848,-148.84843
"My Subaru Love's the Environment","Republic of Boulder > Valdez Area Rock > Anchorage & South Central Alaska > Alaska",https://www.mountainproject.com/route/108607279/my-subaru-loves-the-environment,3.5,-1,"Sport, Alpine",5.10c,1,90,61.17251,-145.7244
"Between The Lines","Ravine Lake Main Walls > Ravine Lake Climbing Areas > Anchorage & South Central Alaska > Alaska",https://www.mountainproject.com/route/109236772/between-the-lines,3.5,-1,Sport,5.10d,1,85,61.8049,-148.29289
"Higher Calling","Left Side Walls > Weiner Lake Routes > Wookie Wall/Weiner Lake > Anchorage & South Central Alaska > Alaska",https://www.mountainproject.com/route/109330369/higher-calling,3.5,-1,Sport,5.11d,1,150,61.8172,-148.17242
"Unknown 2","Right Side Walls > Weiner Lake Routes > Wookie Wall/Weiner Lake > Anchorage & South Central Alaska > Alaska",https://www.mountainproject.com/route/109939183/unknown-2,3.5,-1,Trad,5.11b,1,55,61.81071,-148.15916
"North Slope","Republic of Boulder > Valdez Area Rock > Anchorage & South Central Alaska > Alaska",https://www.mountainproject.com/route/108607151/north-slope,3.5,-1,"Sport, Alpine",5.11d,1,40,61.17251,-145.7244
"The Lost Marsupial","The Throne > Little Switzerland > Denali National Park > Interior Alaska/Alaska Range > Alaska",https://www.mountainproject.com/route/106501839/the-lost-marsupial,3.1,-1,"Trad, Snow, Alpine","5.8 Mod. Snow",8,1300,62.708,-151.1853
"Air Shows & Flower Drops","Airport Heights > Valdez Area Rock > Anchorage & South Central Alaska > Alaska",https://www.mountainproject.com/route/108605344/air-shows-flower-drops,3.5,-1,"Sport, Alpine",5.10c,1,70,61.13965,-146.22021
"First Amendment","Left Cave > Weiner Lake Routes > Wookie Wall/Weiner Lake > Anchorage & South Central Alaska > Alaska",https://www.mountainproject.com/route/109038468/first-amendment,2.9,-1,Sport,5.11a,1,65,61.8128,-148.1665
Sandbag,"Twin Towers > East Grapefruit Rocks > Grapefruit Rocks > Fairbanks and Vicinity > Alaska",https://www.mountainproject.com/route/106011453/sandbag,2.7,-1,Sport,5.9,1,60,65.29304,-148.15959
"Goat's Head Soup","Goats Head Soup > Seward Highway > Anchorage & South Central Alaska > Alaska",https://www.mountainproject.com/route/108825453/goats-head-soup,2.9,-1,Sport,5.10b,1,80,60.98632,-149.61141
"Ruby Shoes","The Diamond > Archangel Valley Sport and Traditional Climbing > Hatcher Pass > Anchorage & South Central Alaska > Alaska",https://www.mountainproject.com/route/108221019/ruby-shoes,2.6,-1,Trad,5.7,2,200,61.81501,-149.243
"Elephant Ear","Tram Rock > Seward Highway > Anchorage & South Central Alaska > Alaska",https://www.mountainproject.com/route/108968907/elephant-ear,3.1,-1,Sport,5.10c,1,55,60.96848,-149.09322
"Cantankerous Cranksters","Fatal Attraction Wall > Reed Lakes Bouldering and Climbing > Hatcher Pass > Anchorage & South Central Alaska > Alaska",https://www.mountainproject.com/route/113456381/cantankerous-cranksters,3.0,-1,Trad,5.11a,4,350,61.82882,-149.17199
"Here Comes the Sun","Sunnyside > West Grapefruit Rocks > Grapefruit Rocks > Fairbanks and Vicinity > Alaska",https://www.mountainproject.com/route/116833852/here-comes-the-sun,3.3,-1,"Sport, TR",5.8,1,85,65.28887,-148.1881
"The Jester","The Royal Tower > Little Switzerland > Denali National Park > Interior Alaska/Alaska Range > Alaska",https://www.mountainproject.com/route/108152317/the-jester,3.3,-1,"Trad, Snow, Alpine","5.10 Mod. Snow",7,2000,62.7005,-151.2227
Goldmine,"Black Lakes Crag > Skagway > Southeastern Alaska/Coastal Range > Alaska",https://www.mountainproject.com/route/112088266/goldmine,3.3,-1,Trad,5.9+,1,120,59.50321,-135.26163
"Brazilian Sex Wax","Birds of Prey > Reed Lakes Bouldering and Climbing > Hatcher Pass > Anchorage & South Central Alaska > Alaska",https://www.mountainproject.com/route/113099493/brazilian-sex-wax,3.2,-1,"Sport, Alpine",5.9+,1,80,61.83098,-149.18136
TBD,"Independence Crag > Independence Mine Bouldering and Climbing > Hatcher Pass > Anchorage & South Central Alaska > Alaska",https://www.mountainproject.com/route/114815209/tbd,3.3,-1,"Trad, Alpine",5.10c,1,95,61.79225,-149.29476
"Danger Maus","Green Gully > Archangel Valley Sport and Traditional Climbing > Hatcher Pass > Anchorage & South Central Alaska > Alaska",https://www.mountainproject.com/route/108036739/danger-maus,3.3,-1,Trad,"5.11+ PG13",1,100,61.81376,-149.24389
"Gusel Jugs","Panorama Point > Valdez Area Rock > Anchorage & South Central Alaska > Alaska",https://www.mountainproject.com/route/111786305/gusel-jugs,3.3,-1,"Sport, Alpine",5.12b,1,65,61.14021,-146.22031
Wisdom,"The Wedge > Anchorage & South Central Alaska > Alaska",https://www.mountainproject.com/route/110737896/wisdom,3.3,-1,"Trad, Alpine",5.9,1,125,61.07919,-149.58605
"More playin, less sprayin","3rd Generation Wall > Archangel Valley Sport and Traditional Climbing > Hatcher Pass > Anchorage & South Central Alaska > Alaska",https://www.mountainproject.com/route/108244631/more-playin-less-sprayin,3.3,-1,Sport,5.11a,1,25,61.81663,-149.23829
"Harvest Mode","Independence Crag > Independence Mine Bouldering and Climbing > Hatcher Pass > Anchorage & South Central Alaska > Alaska",https://www.mountainproject.com/route/110861476/harvest-mode,3.3,-1,"Trad, Alpine","5.10c/d PG13",1,105,61.79225,-149.29476
Dynosaur,"Panorama Point > Valdez Area Rock > Anchorage & South Central Alaska > Alaska",https://www.mountainproject.com/route/111774081/dynosaur,3.3,-1,"Sport, Alpine",5.11d,1,55,61.14021,-146.22031
"Garvey's Slab","Lower Walls > Purinton Creek > Anchorage & South Central Alaska > Alaska",https://www.mountainproject.com/route/109214795/garveys-slab,3.3,-1,Trad,5.10a,1,70,61.81247,-148.14193
"Renegades of Funk","Tunnel Vision Wall > Fairangel Gap and Valley > Archangel Valley Sport and Traditional Climbing > Hatcher Pass > Anchorage & South Central Alaska > Alaska",https://www.mountainproject.com/route/112110453/renegades-of-funk,3.2,-1,Trad,5.9+,1,65,61.8198,-149.25781
"Face to Face","Peanut Butter > East Grapefruit Rocks > Grapefruit Rocks > Fairbanks and Vicinity > Alaska",https://www.mountainproject.com/route/108587137/face-to-face,3.3,-1,Sport,5.10d,1,55,64.95955,-147.51646
"Huck A Turbo","Dermatologist's Dream Wall > Reed Lakes Bouldering and Climbing > Hatcher Pass > Anchorage & South Central Alaska > Alaska",https://www.mountainproject.com/route/106803076/huck-a-turbo,3.3,-1,"Trad, Sport",5.10b,1,90,61.82995,-149.19048
"West Face","The Plunger > Little Switzerland > Denali National Park > Interior Alaska/Alaska Range > Alaska",https://www.mountainproject.com/route/108152391/west-face,3.2,-1,"Trad, Alpine",5.11,2,150,62.706,-151.18221
"Dragon's Teeth","Valdez Glacier Campground > Valdez Area Rock > Anchorage & South Central Alaska > Alaska",https://www.mountainproject.com/route/108594363/dragons-teeth,3.0,-1,"Sport, Alpine",5.7,1,65,61.13908,-146.20546
"Nubian Princess","Dew Mound - Lower Wall > Dew Mound > Eagle River > Anchorage & South Central Alaska > Alaska",https://www.mountainproject.com/route/110685562/nubian-princess,3.2,-1,Sport,5.10+,1,40,61.20459,-149.25232
"Unknown Flare Crack","Tunnel Vision Wall > Fairangel Gap and Valley > Archangel Valley Sport and Traditional Climbing > Hatcher Pass > Anchorage & South Central Alaska > Alaska",https://www.mountainproject.com/route/112122686/unknown-flare-crack,3.3,-1,Trad,5.9,1,70,61.8198,-149.25781
"Classic Crack","Good Vibes Wall > Seward Highway > Anchorage & South Central Alaska > Alaska",https://www.mountainproject.com/route/107133144/classic-crack,3.0,-1,Trad,5.8,2,180,61.018,-149.73869
"24 Karat","Independence Crag > Independence Mine Bouldering and Climbing > Hatcher Pass > Anchorage & South Central Alaska > Alaska",https://www.mountainproject.com/route/114815184/24-karat,3.2,-1,"Trad, Alpine",5.10c,1,,61.79225,-149.29476
"Stoner Girl","Kiliak Wall > Eagle River > Anchorage & South Central Alaska > Alaska",https://www.mountainproject.com/route/108339780/stoner-girl,2.9,-1,Sport,5.10c,1,50,61.21059,-149.24977
"The Thin Grey Line","Falcon Rock > East Grapefruit Rocks > Grapefruit Rocks > Fairbanks and Vicinity > Alaska",https://www.mountainproject.com/route/114573753/the-thin-grey-line,3.2,-1,"Sport, TR",5.11a,1,65,65.29304,-148.15959
"Born to be Mild","SnowBird Slab/Cornerstone > Reed Lakes Bouldering and Climbing > Hatcher Pass > Anchorage & South Central Alaska > Alaska",https://www.mountainproject.com/route/109165759/born-to-be-mild,3.2,-1,Sport,5.7,1,100,61.82995,-149.19048
"5.10 Arete","Black Lakes Crag > Skagway > Southeastern Alaska/Coastal Range > Alaska",https://www.mountainproject.com/route/110564529/510-arete,3.2,-1,Sport,"5.10b/c PG13",1,90,59.50321,-135.26163
Unknown?,"Green Gully > Archangel Valley Sport and Traditional Climbing > Hatcher Pass > Anchorage & South Central Alaska > Alaska",https://www.mountainproject.com/route/109154032/unknown,3.0,-1,Trad,5.9+,2,130,61.81376,-149.24389
"Hungry Time","Byron Glacier Wall > Portage > Anchorage & South Central Alaska > Alaska",https://www.mountainproject.com/route/109130234/hungry-time,3.3,-1,Sport,"5.10a PG13",1,95,60.75848,-148.84843
"Black Pudding","Byron Glacier Wall > Portage > Anchorage & South Central Alaska > Alaska",https://www.mountainproject.com/route/109126396/black-pudding,3.3,-1,Sport,5.11c,1,60,60.75848,-148.84843
"Thin Cracks","Ravine Lake Main Walls > Ravine Lake Climbing Areas > Anchorage & South Central Alaska > Alaska",https://www.mountainproject.com/route/109234652/thin-cracks,3.3,-1,Trad,5.10a/b,1,130,61.8049,-148.29289
"2001 Space Odyssey","Left Side Walls > Weiner Lake Routes > Wookie Wall/Weiner Lake > Anchorage & South Central Alaska > Alaska",https://www.mountainproject.com/route/109329951/2001-space-odyssey,3.3,-1,Trad,5.11d,1,105,61.8172,-148.17242
"Smoking Coconut","Ravine Lake Main Walls > Ravine Lake Climbing Areas > Anchorage & South Central Alaska > Alaska",https://www.mountainproject.com/route/109238516/smoking-coconut,3.3,-1,Trad,5.12a,1,,61.8049,-148.29289
"Buddhas Delight","Left Side Walls > Weiner Lake Routes > Wookie Wall/Weiner Lake > Anchorage & South Central Alaska > Alaska",https://www.mountainproject.com/route/109330118/buddhas-delight,3.2,-1,Sport,5.11c,1,90,61.8172,-148.17242
Shakti,"Creekside Cliff > Purinton Creek > Anchorage & South Central Alaska > Alaska",https://www.mountainproject.com/route/109151505/shakti,2.9,-1,Trad,5.9,1,,61.81175,-148.13854
"The Uncarved Block","Beggar's Canyon > East Grapefruit Rocks > Grapefruit Rocks > Fairbanks and Vicinity > Alaska",https://www.mountainproject.com/route/106779012/the-uncarved-block,3.3,-1,"Trad, Sport, TR",5.10+,1,50,65.29304,-148.15959
"Double Bunk","Ravine Lake Main Walls > Ravine Lake Climbing Areas > Anchorage & South Central Alaska > Alaska",https://www.mountainproject.com/route/109222307/double-bunk,3.2,-1,Trad,5.10b,1,95,61.8049,-148.29289
"Calling Out","Resolution Bluff > Seward Highway > Anchorage & South Central Alaska > Alaska",https://www.mountainproject.com/route/108707154/calling-out,3.3,-1,Sport,5.11,1,75,61.01484,-149.71649
"Broken Bit","Dew Mound - Lower Wall > Dew Mound > Eagle River > Anchorage & South Central Alaska > Alaska",https://www.mountainproject.com/route/108189815/broken-bit,3.0,-1,Sport,5.10d,3,,61.20459,-149.25232
"Rope Eater Roof","Creekside Cliff > Purinton Creek > Anchorage & South Central Alaska > Alaska",https://www.mountainproject.com/route/109151749/rope-eater-roof,3.0,-1,Sport,5.10c,1,,61.81175,-148.13854
Sapphire,"Upper Right Wall > Purinton Creek > Anchorage & South Central Alaska > Alaska",https://www.mountainproject.com/route/109206970/sapphire,3.0,-1,Sport,5.10a,1,,61.81244,-148.1403
"Book of Easy Learning","The Wedge > Anchorage & South Central Alaska > Alaska",https://www.mountainproject.com/route/110787266/book-of-easy-learning,3.0,-1,"Trad, Alpine",5.8-,1,125,61.07919,-149.58605
"High Speed Dirt","Kiliak Wall > Eagle River > Anchorage & South Central Alaska > Alaska",https://www.mountainproject.com/route/108340197/high-speed-dirt,2.7,-1,Sport,5.8+,1,110,61.21059,-149.24977
"Crack in the Woods","Lower Crack in the Woods > Crack in the Woods > Seward Highway > Anchorage & South Central Alaska > Alaska",https://www.mountainproject.com/route/108167469/crack-in-the-woods,2.5,-1,"Trad, TR",5.7,1,30,61.0241,-149.7482
"Cock Nose","Tunnel Vision Wall > Fairangel Gap and Valley > Archangel Valley Sport and Traditional Climbing > Hatcher Pass > Anchorage & South Central Alaska > Alaska",https://www.mountainproject.com/route/112110517/cock-nose,3.0,-1,Trad,5.9,1,95,61.8198,-149.25781
Zigzag,"The Monolith > Archangel Valley Sport and Traditional Climbing > Hatcher Pass > Anchorage & South Central Alaska > Alaska",https://www.mountainproject.com/route/106831834/zigzag,2.5,-1,"Trad, Sport",5.9+,1,80,61.82504,-149.24309
999,"Independence Crag > Independence Mine Bouldering and Climbing > Hatcher Pass > Anchorage & South Central Alaska > Alaska",https://www.mountainproject.com/route/110861454/999,3.0,-1,"Trad, Alpine",5.10b,1,100,61.79225,-149.29476
"Fine Line","Lower Walls > Purinton Creek > Anchorage & South Central Alaska > Alaska",https://www.mountainproject.com/route/109215034/fine-line,3.0,-1,Trad,5.9,1,70,61.81247,-148.14193
"Urban Blight","Party World > Seward Highway > Anchorage & South Central Alaska > Alaska",https://www.mountainproject.com/route/107133175/urban-blight,2.4,-1,Sport,5.8,1,80,60.9901,-149.6179
"Road Soda","Sunshine Ridge > Seward Highway > Anchorage & South Central Alaska > Alaska",https://www.mountainproject.com/route/107151206/road-soda,2.5,-1,Sport,5.10,1,75,61.00626,-149.68649
Progression,"Red Gate > Seward Highway > Anchorage & South Central Alaska > Alaska",https://www.mountainproject.com/route/108967373/progression,2.7,-1,Sport,5.10a/b,1,85,61.0583,-149.7979
"Avoid the Noid","Independence Crag > Independence Mine Bouldering and Climbing > Hatcher Pass > Anchorage & South Central Alaska > Alaska",https://www.mountainproject.com/route/110861440/avoid-the-noid,2.9,-1,"Trad, Alpine",5.10a/b,1,95,61.79225,-149.29476
"Freedom Roof","The Monolith > Archangel Valley Sport and Traditional Climbing > Hatcher Pass > Anchorage & South Central Alaska > Alaska",https://www.mountainproject.com/route/108270032/freedom-roof,2.7,-1,Sport,5.10-,1,90,61.82504,-149.24309
"Turecki 5.11","Tunnel Vision Wall > Fairangel Gap and Valley > Archangel Valley Sport and Traditional Climbing > Hatcher Pass > Anchorage & South Central Alaska > Alaska",https://www.mountainproject.com/route/112122842/turecki-511,3.0,-1,Trad,5.11b,1,65,61.8198,-149.25781
"Broken Arrow","Arrowhead Wall > Dew Mound > Eagle River > Anchorage & South Central Alaska > Alaska",https://www.mountainproject.com/route/109352950/broken-arrow,3.0,-1,Trad,5.10b,1,65,61.20459,-149.25232
"Cheese Pit Blues","Catch The Wave > Archangel Valley Sport and Traditional Climbing > Hatcher Pass > Anchorage & South Central Alaska > Alaska",https://www.mountainproject.com/route/109191908/cheese-pit-blues,3.0,-1,Trad,5.10b,1,120,61.81663,-149.23829
"Shish Kaknob","Dermatologist's Dream Wall > Reed Lakes Bouldering and Climbing > Hatcher Pass > Anchorage & South Central Alaska > Alaska",https://www.mountainproject.com/route/108324498/shish-kaknob,3.0,-1,Trad,5.10a,1,45,61.82995,-149.19048
"Exotic Dancer","Sunshine Ridge > Seward Highway > Anchorage & South Central Alaska > Alaska",https://www.mountainproject.com/route/108112261/exotic-dancer,2.1,-1,Sport,5.9,1,,61.00626,-149.68649
"Pin Cushion","The Sea Cliffs > Juneau > Southeastern Alaska/Coastal Range > Alaska",https://www.mountainproject.com/route/112156439/pin-cushion,3.0,-1,Sport,5.10,1,,58.58585,-134.89897
"Face the Damage","Right Cave > Weiner Lake Routes > Wookie Wall/Weiner Lake > Anchorage & South Central Alaska > Alaska",https://www.mountainproject.com/route/109053272/face-the-damage,2.9,-1,Sport,5.11b,2,115,61.8128,-148.1665
"Get Your Mojo Back","Falcon Rock > East Grapefruit Rocks > Grapefruit Rocks > Fairbanks and Vicinity > Alaska",https://www.mountainproject.com/route/114369713/get-your-mojo-back,3.0,-1,Sport,5.9-,1,55,65.29304,-148.15959
"Sweet Relief","Morning Star Gully > Seward Highway > Anchorage & South Central Alaska > Alaska",https://www.mountainproject.com/route/108950441/sweet-relief,2.9,-1,Trad,5.10c/d,1,,61.00682,-149.68568
"Bongo That Bitch","Panorama Point > Valdez Area Rock > Anchorage & South Central Alaska > Alaska",https://www.mountainproject.com/route/111779293/bongo-that-bitch,3.0,-1,"Sport, Alpine",5.10d,1,60,61.14021,-146.22031
"Dreadful Lock","Creekside Cliff > Purinton Creek > Anchorage & South Central Alaska > Alaska",https://www.mountainproject.com/route/109199433/dreadful-lock,3.0,-1,Trad,5.11b,1,,61.81175,-148.13854
"Left Crack","Tram Rock > Seward Highway > Anchorage & South Central Alaska > Alaska",https://www.mountainproject.com/route/108968923/left-crack,3.0,-1,Trad,5.10a,1,55,60.96848,-149.09322
"Better things","The White Spot > Archangel Valley Sport and Traditional Climbing > Hatcher Pass > Anchorage & South Central Alaska > Alaska",https://www.mountainproject.com/route/109190599/better-things,3.0,-1,Sport,5.10-,1,125,61.81268,-149.2434
"Could be better","The Jungle Gym > Archangel Valley Sport and Traditional Climbing > Hatcher Pass > Anchorage & South Central Alaska > Alaska",https://www.mountainproject.com/route/108244719/could-be-better,2.7,-1,Trad,5.8,1,,61.81663,-149.23829
"Right Crack","Tram Rock > Seward Highway > Anchorage & South Central Alaska > Alaska",https://www.mountainproject.com/route/108969078/right-crack,3.0,-1,Trad,5.10b,1,,60.96848,-149.09322
"No Finer","Goats Head Soup > Seward Highway > Anchorage & South Central Alaska > Alaska",https://www.mountainproject.com/route/108158364/no-finer,2.5,-1,Sport,5.10b/c,1,,60.98632,-149.61141
"Northwest Passage","Northwest Passage > Seward Highway > Anchorage & South Central Alaska > Alaska",https://www.mountainproject.com/route/107154748/northwest-passage,2.6,-1,Sport,5.10b,1,70,61.006,-149.68179
"Finding the Sean","The Shield > Mile High Wall > Reed Lakes Bouldering and Climbing > Hatcher Pass > Anchorage & South Central Alaska > Alaska",https://www.mountainproject.com/route/115134136/finding-the-sean,3.0,-1,"Trad, Alpine",5.11-,2,220,61.83445,-149.1812
"Southeast Ridge","3rd Tower - Main > Mendenhall Towers > Juneau > Southeastern Alaska/Coastal Range > Alaska",https://www.mountainproject.com/route/117593989/southeast-ridge,3.0,-1,"Trad, Alpine",5.10,11,1600,58.53342,-134.48555
Fogels-Visscher,"1st Tower - West Tower > Mendenhall Towers > Juneau > Southeastern Alaska/Coastal Range > Alaska",https://www.mountainproject.com/route/106689770/fogels-visscher,3.0,-1,"Trad, Aid, Alpine","5.9+ C2",8,900,58.53456,-134.49195
"75 cents to ride.","BPR Wall > Fairangel Gap and Valley > Archangel Valley Sport and Traditional Climbing > Hatcher Pass > Anchorage & South Central Alaska > Alaska",https://www.mountainproject.com/route/110696706/75-cents-to-ride,3.0,-1,"Trad, Alpine",5.10,1,80,61.82326,-149.26442
"Indian Crack","Byron Glacier Wall > Portage > Anchorage & South Central Alaska > Alaska",https://www.mountainproject.com/route/109124422/indian-crack,3.0,-1,Trad,5.9,1,50,60.75848,-148.84843
"Renaissance Man","Renaissance Wall > Independence Mine Bouldering and Climbing > Hatcher Pass > Anchorage & South Central Alaska > Alaska",https://www.mountainproject.com/route/117326296/renaissance-man,3.0,-1,"Trad, Alpine",5.11c,1,90,61.80442,-149.2823
"Sprinklers Save Lives","The High Dive > Reed Lakes Bouldering and Climbing > Hatcher Pass > Anchorage & South Central Alaska > Alaska",https://www.mountainproject.com/route/113383967/sprinklers-save-lives,3.0,-1,Trad,5.10+,1,70,61.82995,-149.19048
"5 Dollar Shake Direct","Right Cave > Weiner Lake Routes > Wookie Wall/Weiner Lake > Anchorage & South Central Alaska > Alaska",https://www.mountainproject.com/route/109893807/5-dollar-shake-direct,3.0,-1,Sport,5.13b,1,40,61.8128,-148.1665
"Parks Highway","Near Tors: Lizard's Eye > Granite Tors > Fairbanks and Vicinity > Alaska",https://www.mountainproject.com/route/107783652/parks-highway,3.0,-1,"Trad, TR",5.9+,1,60,64.85382,-146.27091
"Birdman Cult","Moai Wall > Independence Mine Bouldering and Climbing > Hatcher Pass > Anchorage & South Central Alaska > Alaska",https://www.mountainproject.com/route/111992731/birdman-cult,3.0,-1,"Trad, Alpine",5.9+,1,,61.83701,-149.27792
"Thin Mint","Main Wall > Mount Prindle > Fairbanks and Vicinity > Alaska",https://www.mountainproject.com/route/108227051/thin-mint,3.0,-1,"Trad, Alpine",5.8,2,300,65.4655,-146.4391
"Trusting Aborigines","The Diamond > Archangel Valley Sport and Traditional Climbing > Hatcher Pass > Anchorage & South Central Alaska > Alaska",https://www.mountainproject.com/route/110616302/trusting-aborigines,3.0,-1,Sport,5.11-,1,80,61.81501,-149.243
"Ghost of a Smile","The Wedge > Anchorage & South Central Alaska > Alaska",https://www.mountainproject.com/route/110787239/ghost-of-a-smile,3.0,-1,"Sport, Alpine",5.10c,1,80,61.07919,-149.58605
"The Nose Knows","Panorama Point > Valdez Area Rock > Anchorage & South Central Alaska > Alaska",https://www.mountainproject.com/route/111778903/the-nose-knows,3.0,-1,"Sport, Alpine",5.11d,1,60,61.14021,-146.22031
"Mr. Bill","SnowBird Slab/Cornerstone > Reed Lakes Bouldering and Climbing > Hatcher Pass > Anchorage & South Central Alaska > Alaska",https://www.mountainproject.com/route/109165778/mr-bill,3.0,-1,Trad,5.9+,1,90,61.82995,-149.19048
"Route  1 Lower Wall","43 Mile > Valdez Area Rock > Anchorage & South Central Alaska > Alaska",https://www.mountainproject.com/route/111950628/route-1-lower-wall,3.0,-1,"Sport, Alpine",5.8,1,60,61.24233,-145.34356
"Nibblen' No-see-ums","Valdez Glacier Campground > Valdez Area Rock > Anchorage & South Central Alaska > Alaska",https://www.mountainproject.com/route/108626791/nibblen-no-see-ums,3.0,-1,"Sport, Alpine",5.11c,1,50,61.13908,-146.20546
"Trim the Bush","Valdez Glacier Campground > Valdez Area Rock > Anchorage & South Central Alaska > Alaska",https://www.mountainproject.com/route/108621207/trim-the-bush,3.0,-1,"Sport, Alpine",5.10b,1,50,61.13908,-146.20546
Alderdash,"Valdez Glacier Campground > Valdez Area Rock > Anchorage & South Central Alaska > Alaska",https://www.mountainproject.com/route/111218339/alderdash,3.0,-1,"Sport, Alpine",5.11b,1,35,61.13908,-146.20546
Powerbag,"Ravine Lake Main Walls > Ravine Lake Climbing Areas > Anchorage & South Central Alaska > Alaska",https://www.mountainproject.com/route/109235788/powerbag,3.0,-1,Sport,5.10b/c,1,,61.8049,-148.29289
"Slim Shady","Left Side Walls > Weiner Lake Routes > Wookie Wall/Weiner Lake > Anchorage & South Central Alaska > Alaska",https://www.mountainproject.com/route/108978240/slim-shady,3.0,-1,"Trad, Sport",5.10+,1,60,61.8172,-148.17242
"Mind Riot","Creekside Cliff > Purinton Creek > Anchorage & South Central Alaska > Alaska",https://www.mountainproject.com/route/109199188/mind-riot,3.0,-1,Trad,"5.10a R",1,,61.81175,-148.13854
"400 lb Diet","Gorilla's Head > East Grapefruit Rocks > Grapefruit Rocks > Fairbanks and Vicinity > Alaska",https://www.mountainproject.com/route/108587106/400-lb-diet,3.0,-1,Sport,5.10a,1,35,65.35648,-147.01109
Entrepreneur,"The Sunny Side > Valdez Area Rock > Anchorage & South Central Alaska > Alaska",https://www.mountainproject.com/route/108609583/entrepreneur,3.0,-1,"Sport, Alpine",5.8+,1,80,61.17201,-145.72496
"Cotter Unlimited","Panorama Point > Valdez Area Rock > Anchorage & South Central Alaska > Alaska",https://www.mountainproject.com/route/111778837/cotter-unlimited,2.8,-1,"Sport, Alpine",5.8-,1,55,61.14021,-146.22031
Flakey,"The Monolith > Archangel Valley Sport and Traditional Climbing > Hatcher Pass > Anchorage & South Central Alaska > Alaska",https://www.mountainproject.com/route/109138107/flakey,2.8,-1,Trad,5.9,1,70,61.82504,-149.24309
"Lazy Days","Valdez Glacier Campground > Valdez Area Rock > Anchorage & South Central Alaska > Alaska",https://www.mountainproject.com/route/108626071/lazy-days,2.8,-1,"Sport, Alpine",5.10b,1,65,61.13908,-146.20546
"Dino Later","Dino Head > Seward Highway > Anchorage & South Central Alaska > Alaska",https://www.mountainproject.com/route/108291229/dino-later,2.8,-1,Sport,5.11b,1,40,60.9834,-149.58971
"French Wedge","Kachemak Crack > Kenai Peninsula > Alaska",https://www.mountainproject.com/route/117098402/french-wedge,3.0,-1,"Trad, TR","5.10+ PG13",1,70,59.60906,-151.18875
"The Romanian Highstep","The Gargoyle > Archangel Valley Sport and Traditional Climbing > Hatcher Pass > Anchorage & South Central Alaska > Alaska",https://www.mountainproject.com/route/114553409/the-romanian-highstep,3.0,-1,Sport,5.13a,1,60,61.81663,-149.23829
"The Jester","Renaissance Wall > Independence Mine Bouldering and Climbing > Hatcher Pass > Anchorage & South Central Alaska > Alaska",https://www.mountainproject.com/route/117326337/the-jester,3.0,-1,"Trad, Alpine",5.11,1,70,61.80442,-149.2823
"Cryptic Hacker","The Gargoyle > Archangel Valley Sport and Traditional Climbing > Hatcher Pass > Anchorage & South Central Alaska > Alaska",https://www.mountainproject.com/route/114950941/cryptic-hacker,3.0,-1,Sport,5.13d,1,55,61.81663,-149.23829
"Cheap Bourbon Whiskey","PBR Wall > Archangel Valley Sport and Traditional Climbing > Hatcher Pass > Anchorage & South Central Alaska > Alaska",https://www.mountainproject.com/route/115186598/cheap-bourbon-whiskey,3.0,-1,Trad,5.8,1,135,61.81296,-149.24454
"West Face Cracks","The Throne > Little Switzerland > Denali National Park > Interior Alaska/Alaska Range > Alaska",https://www.mountainproject.com/route/107669251/west-face-cracks,3.0,-1,"Trad, Snow, Alpine","5.10a Easy Snow",1,100,62.708,-151.1853
"Retroed Art","Renaissance Wall > Independence Mine Bouldering and Climbing > Hatcher Pass > Anchorage & South Central Alaska > Alaska",https://www.mountainproject.com/route/117326274/retroed-art,3.0,-1,"Trad, Alpine",5.11a,1,80,61.80442,-149.2823
"1st bolted route","The Sea Cliffs > Juneau > Southeastern Alaska/Coastal Range > Alaska",https://www.mountainproject.com/route/112156456/1st-bolted-route,3.0,-1,Sport,5.7,1,,58.58585,-134.89897
"Less Gypsy, More Ninja","Arrowhead Wall > Dew Mound > Eagle River > Anchorage & South Central Alaska > Alaska",https://www.mountainproject.com/route/109168394/less-gypsy-more-ninja,3.0,-1,Sport,5.13b,1,70,61.20459,-149.25232
"Poseurs are hosers","Didilkama > Glacier Creek Drainage and Snowbird Glacier > Hatcher Pass > Anchorage & South Central Alaska > Alaska",https://www.mountainproject.com/route/109700907/poseurs-are-hosers,3.0,-1,"Trad, Alpine","5.11a R",7,1000,61.83791,-149.21486
"The Honey Pot","Ursa Minor > Seward Highway > Anchorage & South Central Alaska > Alaska",https://www.mountainproject.com/route/114495481/the-honey-pot,3.0,-1,Sport,5.11b/c,1,45,61.01582,-149.59321
"Rebecca's Roof","Green Gully > Archangel Valley Sport and Traditional Climbing > Hatcher Pass > Anchorage & South Central Alaska > Alaska",https://www.mountainproject.com/route/108036775/rebeccas-roof,3.0,-1,Trad,5.12c,2,200,61.81376,-149.24389
"2nd bolted route","The Sea Cliffs > Juneau > Southeastern Alaska/Coastal Range > Alaska",https://www.mountainproject.com/route/112156483/2nd-bolted-route,3.0,-1,Sport,5.8,1,,58.58585,-134.89897
"Possum Kingdom","SnowBird Slab/Cornerstone > Reed Lakes Bouldering and Climbing > Hatcher Pass > Anchorage & South Central Alaska > Alaska",https://www.mountainproject.com/route/109165826/possum-kingdom,3.0,-1,Trad,5.10-,1,90,61.82995,-149.19048
"The Fin","Near Tors: Lizard's Eye > Granite Tors > Fairbanks and Vicinity > Alaska",https://www.mountainproject.com/route/107782545/the-fin,3.0,-1,TR,5.11,1,30,64.85382,-146.27091
"Welcome to Easter Island","Moai Wall > Independence Mine Bouldering and Climbing > Hatcher Pass > Anchorage & South Central Alaska > Alaska",https://www.mountainproject.com/route/111992711/welcome-to-easter-island,3.0,-1,"Trad, Alpine",5.7,1,90,61.83701,-149.27792
"Slow Starter","Resolution Bluff > Seward Highway > Anchorage & South Central Alaska > Alaska",https://www.mountainproject.com/route/108707344/slow-starter,3.0,-1,Trad,5.12-,1,75,61.01484,-149.71649
Ordorono,"Zulu Wall > Archangel Valley Sport and Traditional Climbing > Hatcher Pass > Anchorage & South Central Alaska > Alaska",https://www.mountainproject.com/route/110616306/ordorono,3.0,-1,Trad,5.9,1,70,61.81663,-149.23829
"The Trident cracks","Zulu Wall > Archangel Valley Sport and Traditional Climbing > Hatcher Pass > Anchorage & South Central Alaska > Alaska",https://www.mountainproject.com/route/110623007/the-trident-cracks,3.0,-1,"Trad, TR",5.11,1,80,61.81663,-149.23829
"Amazing Dino","Dino Head > Seward Highway > Anchorage & South Central Alaska > Alaska",https://www.mountainproject.com/route/108967073/amazing-dino,3.0,-1,Sport,5.11c/d,1,55,60.9834,-149.58971
Astroglide,"Byron Glacier Wall > Portage > Anchorage & South Central Alaska > Alaska",https://www.mountainproject.com/route/109131506/astroglide,3.0,-1,Sport,5.10a,1,,60.75848,-148.84843
"Party on Wayne","The Sunny Side > Valdez Area Rock > Anchorage & South Central Alaska > Alaska",https://www.mountainproject.com/route/112358796/party-on-wayne,3.0,-1,"Sport, Alpine",5.8,2,175,61.17201,-145.72496
"Afternoon Shadow Boxing","The Sunny Side > Valdez Area Rock > Anchorage & South Central Alaska > Alaska",https://www.mountainproject.com/route/112361068/afternoon-shadow-boxing,3.0,-1,"Trad, Alpine",5.7,2,190,61.17201,-145.72496
"Saturday Night Fever","The Sunny Side > Valdez Area Rock > Anchorage & South Central Alaska > Alaska",https://www.mountainproject.com/route/112327712/saturday-night-fever,3.0,-1,"Sport, Alpine",5.8,1,85,61.17201,-145.72496
"Pika's Penthouse","The Sunny Side > Valdez Area Rock > Anchorage & South Central Alaska > Alaska",https://www.mountainproject.com/route/112361507/pikas-penthouse,3.0,-1,"Sport, Alpine",5.9,2,200,61.17201,-145.72496
"Spit It Out","Left Side Walls > Weiner Lake Routes > Wookie Wall/Weiner Lake > Anchorage & South Central Alaska > Alaska",https://www.mountainproject.com/route/109330095/spit-it-out,3.0,-1,Trad,5.13a,2,115,61.8172,-148.17242
Bicentennial,"Lookout Rock!! > Valdez Area Rock > Anchorage & South Central Alaska > Alaska",https://www.mountainproject.com/route/112099535/bicentennial,3.0,-1,"Sport, Alpine",5.8,1,65,61.14031,-146.22083
"Brand New","Lookout Rock!! > Valdez Area Rock > Anchorage & South Central Alaska > Alaska",https://www.mountainproject.com/route/112099586/brand-new,3.0,-1,"Sport, Alpine",5.8,1,105,61.14031,-146.22083
"Fairwell Transmission","The White Spot > Archangel Valley Sport and Traditional Climbing > Hatcher Pass > Anchorage & South Central Alaska > Alaska",https://www.mountainproject.com/route/109190595/fairwell-transmission,3.0,-1,Sport,5.10b/c,1,115,61.81268,-149.2434
"Trust the Rubber","Right Side Walls > Weiner Lake Routes > Wookie Wall/Weiner Lake > Anchorage & South Central Alaska > Alaska",https://www.mountainproject.com/route/109053754/trust-the-rubber,3.0,-1,Sport,5.11c,1,90,61.81071,-148.15916
"Breaking Ground","Ravine Lake Main Walls > Ravine Lake Climbing Areas > Anchorage & South Central Alaska > Alaska",https://www.mountainproject.com/route/109236762/breaking-ground,3.0,-1,Trad,5.10b,1,,61.8049,-148.29289
"Second Coming Left","Second Coming Tor > Granite Tors > Fairbanks and Vicinity > Alaska",https://www.mountainproject.com/route/108187203/second-coming-left,3.0,-1,Trad,5.8+,1,40,64.85382,-146.27091
"Great Barrier Reef","Creekside Cliff > Purinton Creek > Anchorage & South Central Alaska > Alaska",https://www.mountainproject.com/route/109198142/great-barrier-reef,3.0,-1,Trad,5.12a,1,,61.81175,-148.13854
"Janes crack","Tarzan's Temple > Archangel Valley Sport and Traditional Climbing > Hatcher Pass > Anchorage & South Central Alaska > Alaska",https://www.mountainproject.com/route/108244638/janes-crack,3.0,-1,"Trad, Sport",5.10c,2,200,61.81326,-149.2683
"Use Enough Gun","Weekender Wall > Ravine Lake Climbing Areas > Anchorage & South Central Alaska > Alaska",https://www.mountainproject.com/route/109239724/use-enough-gun,3.0,-1,Sport,5.12a,1,40,61.80554,-148.30643
"Hocus Pocus","Upper Crack in the Woods > Crack in the Woods > Seward Highway > Anchorage & South Central Alaska > Alaska",https://www.mountainproject.com/route/108158347/hocus-pocus,2.5,-1,Trad,5.10a,1,,61.0241,-149.7482
Burning,"Right Side Walls > Weiner Lake Routes > Wookie Wall/Weiner Lake > Anchorage & South Central Alaska > Alaska",https://www.mountainproject.com/route/109979994/burning,3.0,-1,Trad,5.11a,1,,61.81071,-148.15916
"Salsa Brava","Mosquito Ledge > Seward Highway > Anchorage & South Central Alaska > Alaska",https://www.mountainproject.com/route/108972065/salsa-brava,3.0,-1,"Trad, Sport",5.10c/d,1,103,60.88129,-149.03948
Qualifier,"Lower Walls > Purinton Creek > Anchorage & South Central Alaska > Alaska",https://www.mountainproject.com/route/109211252/qualifier,3.0,-1,Trad,"5.10b R",1,70,61.81247,-148.14193
"Finger Fillet","Gorilla's Head > East Grapefruit Rocks > Grapefruit Rocks > Fairbanks and Vicinity > Alaska",https://www.mountainproject.com/route/108587021/finger-fillet,3.0,-1,Sport,5.11b,1,35,65.35648,-147.01109
"Piece of Flake","Ravendale (aka Lost Crack) > West Grapefruit Rocks > Grapefruit Rocks > Fairbanks and Vicinity > Alaska",https://www.mountainproject.com/route/108586859/piece-of-flake,3.0,-1,Sport,5.9+,1,35,65.28423,-148.20122
"Sadhu's Blues","Upper Center Wall > Purinton Creek > Anchorage & South Central Alaska > Alaska",https://www.mountainproject.com/route/109216758/sadhus-blues,3.0,-1,Sport,5.12,1,55,61.81266,-148.14126
"Pull My Finger","Gorilla's Head > East Grapefruit Rocks > Grapefruit Rocks > Fairbanks and Vicinity > Alaska",https://www.mountainproject.com/route/108587016/pull-my-finger,3.0,-1,Sport,5.10b,1,30,65.35648,-147.01109
"Wild Kingdom","Dermatologist's Dream Wall > Reed Lakes Bouldering and Climbing > Hatcher Pass > Anchorage & South Central Alaska > Alaska",https://www.mountainproject.com/route/108324468/wild-kingdom,3.0,-1,"Trad, Sport",5.11b,1,90,61.82995,-149.19048
"Love Bubble","The Sunny Side > Valdez Area Rock > Anchorage & South Central Alaska > Alaska",https://www.mountainproject.com/route/108609628/love-bubble,3.0,-1,"Sport, Alpine",5.8,1,80,61.17201,-145.72496
"Stop The Bombing","Left Side Walls > Weiner Lake Routes > Wookie Wall/Weiner Lake > Anchorage & South Central Alaska > Alaska",https://www.mountainproject.com/route/109352393/stop-the-bombing,3.0,-1,Trad,5.11b,1,95,61.8172,-148.17242
Talons,"Blueberry Block > Valdez Area Rock > Anchorage & South Central Alaska > Alaska",https://www.mountainproject.com/route/107215874/talons,3.0,-1,"Sport, Alpine",5.11a/b,1,80,61.12395,-145.67363
Unknown,"Blueberry Block > Valdez Area Rock > Anchorage & South Central Alaska > Alaska",https://www.mountainproject.com/route/107215862/unknown,3.0,-1,"Sport, Alpine",5.10-,1,40,61.12395,-145.67363
"Goin' Commando","Waterfall Tower > Thumb Cove > Resurrection Bay Area > Kenai Peninsula > Alaska",https://www.mountainproject.com/route/117760433/goin-commando,3.0,-1,"Trad, Alpine","5.10- PG13",4,700,60.00963,-149.28333
"The Tooth Obsession","Moose's Tooth > Ruth Gorge > Denali National Park > Interior Alaska/Alaska Range > Alaska",https://www.mountainproject.com/route/113609765/the-tooth-obsession,3.0,-1,"Trad, Aid, Ice, Alpine","5.10+ WI4 A0 PG13",16,2800,62.96972,-150.61126
"Drink My Potatoes","Waterfall Tower > Thumb Cove > Resurrection Bay Area > Kenai Peninsula > Alaska",https://www.mountainproject.com/route/117760715/drink-my-potatoes,3.0,-1,"Trad, Alpine","5.10a PG13",3,625,60.00963,-149.28333
"Down & Dirty Dihedral","Hanging Garden > The Crack Garden > Reed Lakes Bouldering and Climbing > Hatcher Pass > Anchorage & South Central Alaska > Alaska",https://www.mountainproject.com/route/112043913/down-dirty-dihedral,2.7,-1,"Trad, Alpine",5.8,1,70,61.81717,-149.20896
"The 5th Element - Fifth Tower","5th Tower > Mendenhall Towers > Juneau > Southeastern Alaska/Coastal Range > Alaska",https://www.mountainproject.com/route/114968082/the-5th-element-fifth-tower,3.0,-1,"Trad, Alpine",5.10d,7,1250,58.53145,-134.47641
"Hallowed Ground","Valdez Glacier Campground > Valdez Area Rock > Anchorage & South Central Alaska > Alaska",https://www.mountainproject.com/route/111218167/hallowed-ground,2.7,-1,"Sport, Alpine",5.11a,1,45,61.13908,-146.20546
"The Little Waterfall That Could","Valdez Glacier Campground > Valdez Area Rock > Anchorage & South Central Alaska > Alaska",https://www.mountainproject.com/route/116692814/the-little-waterfall-that-could,3.0,-1,"Trad, Alpine",5.7,1,50,61.13908,-146.20546
"Plebeian Paradise","Sunshine Ridge > Seward Highway > Anchorage & South Central Alaska > Alaska",https://www.mountainproject.com/route/113180933/plebeian-paradise,3.0,-1,Sport,5.8-,1,130,61.00626,-149.68649
Rainman,"The Lost Wall > Archangel Valley Sport and Traditional Climbing > Hatcher Pass > Anchorage & South Central Alaska > Alaska",https://www.mountainproject.com/route/115190141/rainman,3.0,-1,Trad,5.11,2,130,61.81069,-149.24956
"Hakuna Matata","Base Area and Single Pitch > Mendenhall Towers > Juneau > Southeastern Alaska/Coastal Range > Alaska",https://www.mountainproject.com/route/117031531/hakuna-matata,3.0,-1,"Trad, Alpine",5.11a,1,160,58.52197,-134.49648
"Broad Street Bully","Hanging Garden > The Crack Garden > Reed Lakes Bouldering and Climbing > Hatcher Pass > Anchorage & South Central Alaska > Alaska",https://www.mountainproject.com/route/113442449/broad-street-bully,3.0,-1,"Trad, Alpine",5.8,1,100,61.81717,-149.20896
"Unknown one","Valdez Glacier Campground > Valdez Area Rock > Anchorage & South Central Alaska > Alaska",https://www.mountainproject.com/route/116692838/unknown-one,3.0,-1,"Sport, Alpine",5.10c,1,70,61.13908,-146.20546
"Hammer Time","Valdez Glacier Campground > Valdez Area Rock > Anchorage & South Central Alaska > Alaska",https://www.mountainproject.com/route/116699711/hammer-time,3.0,-1,"Sport, Alpine",5.10a,1,75,61.13908,-146.20546
"Tritonian Yeti Physics","The Crack Garden > The Crack Garden > Reed Lakes Bouldering and Climbing > Hatcher Pass > Anchorage & South Central Alaska > Alaska",https://www.mountainproject.com/route/111999985/tritonian-yeti-physics,2.8,-1,"Trad, Alpine",5.8,1,105,61.81689,-149.20903
"Unknown 5","Valdez Glacier Campground > Valdez Area Rock > Anchorage & South Central Alaska > Alaska",https://www.mountainproject.com/route/116699582/unknown-5,3.0,-1,"Sport, Alpine",5.11b,1,60,61.13908,-146.20546
"Unknown 4","Valdez Glacier Campground > Valdez Area Rock > Anchorage & South Central Alaska > Alaska",https://www.mountainproject.com/route/116699535/unknown-4,3.0,-1,"Sport, Alpine",5.7+,1,45,61.13908,-146.20546
"Pocket Full of Slab","Sunnyside > West Grapefruit Rocks > Grapefruit Rocks > Fairbanks and Vicinity > Alaska",https://www.mountainproject.com/route/116834010/pocket-full-of-slab,3.0,-1,"Sport, TR",5.10a/b,1,70,65.28887,-148.1881
"Unknown 6","Valdez Glacier Campground > Valdez Area Rock > Anchorage & South Central Alaska > Alaska",https://www.mountainproject.com/route/116699685/unknown-6,3.0,-1,"Sport, Alpine",5.9,1,65,61.13908,-146.20546
"4th of July Ridge","1st Tower - West Tower > Mendenhall Towers > Juneau > Southeastern Alaska/Coastal Range > Alaska",https://www.mountainproject.com/route/117349825/4th-of-july-ridge,3.0,-1,"Trad, Alpine",5.9-,11,1200,58.53456,-134.49195
"Diggin It","Ramparts Wall > Independence Mine Bouldering and Climbing > Hatcher Pass > Anchorage & South Central Alaska > Alaska",https://www.mountainproject.com/route/115322530/diggin-it,3.0,-1,"Trad, Alpine",5.10b,3,250,61.79244,-149.29837
"Butter Snickers","6th Tower > Mendenhall Towers > Juneau > Southeastern Alaska/Coastal Range > Alaska",https://www.mountainproject.com/route/117620803/butter-snickers,3.0,-1,"Trad, Alpine",5.8,4,1000,58.53199,-134.46682
"The Mayor of Crush Town","Right Cave > Weiner Lake Routes > Wookie Wall/Weiner Lake > Anchorage & South Central Alaska > Alaska",https://www.mountainproject.com/route/108736165/the-mayor-of-crush-town,3.0,-1,Sport,5.13-,1,80,61.8128,-148.1665
"Dick Swagger Dihedral","Hanging Garden > The Crack Garden > Reed Lakes Bouldering and Climbing > Hatcher Pass > Anchorage & South Central Alaska > Alaska",https://www.mountainproject.com/route/112043948/dick-swagger-dihedral,3.0,-1,"Trad, Alpine",5.10,1,105,61.81717,-149.20896
"The Project","4 mile crag > Skagway > Southeastern Alaska/Coastal Range > Alaska",https://www.mountainproject.com/route/117801404/the-project,3.0,-1,"Trad, TR","5.11c/d R",1,55,59.47418,-135.34673
"The New 40","Dew Mound - Lower Wall > Dew Mound > Eagle River > Anchorage & South Central Alaska > Alaska",https://www.mountainproject.com/route/114437131/the-new-40,3.0,-1,Sport,5.13d,1,30,61.20459,-149.25232
"Seven Felonies","The Prow Area > Skilak Lake > Kenai Peninsula > Alaska",https://www.mountainproject.com/route/106464606/seven-felonies,3.0,-1,Sport,5.14a,1,70,60.2125,-150.0732
"New Mother Nature","The Gargoyle > Ruth Gorge > Denali National Park > Interior Alaska/Alaska Range > Alaska",https://www.mountainproject.com/route/107939135/new-mother-nature,3.0,-1,"Trad, Aid, Alpine","5.11 C1",10,1800,62.95864,-150.69263
"Finger Crack","101 Wall (Worthington) > Valdez Area Rock > Anchorage & South Central Alaska > Alaska",https://www.mountainproject.com/route/117608500/finger-crack,3.0,-1,"Trad, Alpine",5.10b,1,55,61.17056,-145.72445
"Lost in the Bush","Rogers Roof > Lane Prospect Area > Archangel Valley Sport and Traditional Climbing > Hatcher Pass > Anchorage & South Central Alaska > Alaska",https://www.mountainproject.com/route/115146269/lost-in-the-bush,3.0,-1,"Trad, Alpine",5.10b,1,,61.84318,-149.237
"Alaskan Abortion","4 mile crag > Skagway > Southeastern Alaska/Coastal Range > Alaska",https://www.mountainproject.com/route/117796630/alaskan-abortion,3.0,-1,"Trad, TR",5.9+,1,30,59.47418,-135.34673
Stevia,"The Sugar Cube > Fairangel Gap and Valley > Archangel Valley Sport and Traditional Climbing > Hatcher Pass > Anchorage & South Central Alaska > Alaska",https://www.mountainproject.com/route/114556800/stevia,3.0,-1,"TR, Boulder","5.12 V6-7",1,30,61.81567,-149.27189
Paydirt,"The Mine > Independence Mine Bouldering and Climbing > Hatcher Pass > Anchorage & South Central Alaska > Alaska",https://www.mountainproject.com/route/115133922/paydirt,3.0,-1,"Trad, Alpine",5.9+,3,300,61.80328,-149.29063
"By Others","The Mine > Independence Mine Bouldering and Climbing > Hatcher Pass > Anchorage & South Central Alaska > Alaska",https://www.mountainproject.com/route/114947364/by-others,3.0,-1,"Trad, Alpine",5.8,1,,61.80328,-149.29063
"Gray Dihedral","4 mile crag > Skagway > Southeastern Alaska/Coastal Range > Alaska",https://www.mountainproject.com/route/117801369/gray-dihedral,3.0,-1,"Trad, TR",5.10c,1,55,59.47418,-135.34673
"Wishbone Right?","Wishbone > Fairangel Walls > Archangel Valley Sport and Traditional Climbing > Hatcher Pass > Anchorage & South Central Alaska > Alaska",https://www.mountainproject.com/route/114510977/wishbone-right,3.0,-1,Trad,"5.11 PG13",1,55,61.82717,-149.24447
Fisticuffs,"The Wedge > Anchorage & South Central Alaska > Alaska",https://www.mountainproject.com/route/110738034/fisticuffs,2.8,-1,"Trad, Alpine",5.9,1,100,61.07919,-149.58605
"Masters of the Mid","Crown Jewel > Little Switzerland > Denali National Park > Interior Alaska/Alaska Range > Alaska",https://www.mountainproject.com/route/108712096/masters-of-the-mid,3.0,-1,"Trad, Alpine",5.10a,2,200,62.68924,-151.19908
"Brothers in Arms","Spradlin spire > Reed Lakes Bouldering and Climbing > Hatcher Pass > Anchorage & South Central Alaska > Alaska",https://www.mountainproject.com/route/110653680/brothers-in-arms,3.0,-1,"Trad, Alpine",5.10,5,800,61.84235,-149.11374
Slabby,"Ramparts Wall > Independence Mine Bouldering and Climbing > Hatcher Pass > Anchorage & South Central Alaska > Alaska",https://www.mountainproject.com/route/117320702/slabby,3.0,-1,"Trad, Alpine",5.9,1,70,61.79244,-149.29837
"A Surfing Life","4th Tower > Mendenhall Towers > Juneau > Southeastern Alaska/Coastal Range > Alaska",https://www.mountainproject.com/route/117525690/a-surfing-life,3.0,-1,"Trad, Alpine",5.11b,8,1200,58.53157,-134.47722
"Gold Spot","The Mine > Independence Mine Bouldering and Climbing > Hatcher Pass > Anchorage & South Central Alaska > Alaska",https://www.mountainproject.com/route/114947323/gold-spot,3.0,-1,"Trad, Alpine",5.9,1,,61.80328,-149.29063
"2 Left Shoes","The High Dive > Reed Lakes Bouldering and Climbing > Hatcher Pass > Anchorage & South Central Alaska > Alaska",https://www.mountainproject.com/route/113383986/2-left-shoes,3.0,-1,Sport,5.11+,1,70,61.82995,-149.19048
"PWS Training Run","The Mine > Independence Mine Bouldering and Climbing > Hatcher Pass > Anchorage & South Central Alaska > Alaska",https://www.mountainproject.com/route/114947341/pws-training-run,3.0,-1,"Trad, Alpine",5.11a,1,220,61.80328,-149.29063
Standing-On-Rock,"Falls Peak > Indianhouse Area > Seward Highway > Anchorage & South Central Alaska > Alaska",https://www.mountainproject.com/route/112846233/standing-on-rock,3.0,-1,Trad,5.9,2,150,60.99848,-149.56264
Sendsational,"101 Wall (Worthington) > Valdez Area Rock > Anchorage & South Central Alaska > Alaska",https://www.mountainproject.com/route/117610680/sendsational,3.0,-1,"Trad, Alpine",5.12,1,65,61.17056,-145.72445
"Up and At' em","The Mine > Independence Mine Bouldering and Climbing > Hatcher Pass > Anchorage & South Central Alaska > Alaska",https://www.mountainproject.com/route/115133969/up-and-at-em,3.0,-1,"Trad, Alpine",5.10d,1,,61.80328,-149.29063
"Route 389","Valdez Glacier Campground > Valdez Area Rock > Anchorage & South Central Alaska > Alaska",https://www.mountainproject.com/route/117703664/route-389,3.0,-1,"Sport, Alpine",5.11b,1,55,61.13908,-146.20546
"Not known","Sea Cliff Roadcut > Juneau > Southeastern Alaska/Coastal Range > Alaska",https://www.mountainproject.com/route/114170281/not-known,3.0,-1,Sport,5.8+,1,60,58.58297,-134.89635
"Zero Tolerance","Aurora Slab > Archangel Valley Sport and Traditional Climbing > Hatcher Pass > Anchorage & South Central Alaska > Alaska",https://www.mountainproject.com/route/113441972/zero-tolerance,3.0,-1,Trad,5.10,1,115,61.8104,-149.25
EP2,"Ramparts Wall > Independence Mine Bouldering and Climbing > Hatcher Pass > Anchorage & South Central Alaska > Alaska",https://www.mountainproject.com/route/117333829/ep2,3.0,-1,"Trad, Alpine",5.10d,1,70,61.79244,-149.29837
"Standing with Science","Falls Peak > Indianhouse Area > Seward Highway > Anchorage & South Central Alaska > Alaska",https://www.mountainproject.com/route/112846212/standing-with-science,3.0,-1,Trad,5.10+,2,150,60.99848,-149.56264
"Head Space and Timing","Lefty Area > Pivot Point > Seward Highway > Anchorage & South Central Alaska > Alaska",https://www.mountainproject.com/route/111981313/head-space-and-timing,2.8,-1,Sport,5.9+,1,35,61.02093,-149.74429
"Less is More","Arrowhead Wall > Dew Mound > Eagle River > Anchorage & South Central Alaska > Alaska",https://www.mountainproject.com/route/109006733/less-is-more,3.0,-1,Sport,5.13a,1,70,61.20459,-149.25232
"no name?","Sea Cliff Roadcut > Juneau > Southeastern Alaska/Coastal Range > Alaska",https://www.mountainproject.com/route/114171137/no-name,3.0,-1,Sport,5.8,1,50,58.58297,-134.89635
"Unknown at 8","Valdez Glacier Campground > Valdez Area Rock > Anchorage & South Central Alaska > Alaska",https://www.mountainproject.com/route/117703703/unknown-at-8,3.0,-1,"Sport, Alpine",5.8+,1,55,61.13908,-146.20546
Bluebies,"Blueberry Block > Valdez Area Rock > Anchorage & South Central Alaska > Alaska",https://www.mountainproject.com/route/110843807/bluebies,2.8,-1,"Trad, TR, Alpine",5.9,1,35,61.12395,-145.67363
Unknown,"Kiliak Wall > Eagle River > Anchorage & South Central Alaska > Alaska",https://www.mountainproject.com/route/111060487/unknown,3.0,-1,Sport,5.10,1,50,61.21059,-149.24977
"The Black Gate","Eyes of the World > Tee Harbor > Juneau > Southeastern Alaska/Coastal Range > Alaska",https://www.mountainproject.com/route/117658384/the-black-gate,3.0,-1,"Sport, TR",5.11a,1,90,58.4124,-134.7525
"Black Magic","Monkey Face > Reed Lakes Bouldering and Climbing > Hatcher Pass > Anchorage & South Central Alaska > Alaska",https://www.mountainproject.com/route/113244978/black-magic,3.0,-1,"Trad, Alpine",5.10c,1,100,61.84429,-149.16181
"Mossy ledges","Eyes of the World > Tee Harbor > Juneau > Southeastern Alaska/Coastal Range > Alaska",https://www.mountainproject.com/route/117658325/mossy-ledges,3.0,-1,"Sport, TR",5.7,1,85,58.4124,-134.7525
"Vanilla Sky","Tidal Flats > Dyea > Skagway > Southeastern Alaska/Coastal Range > Alaska",https://www.mountainproject.com/route/112013760/vanilla-sky,3.0,-1,"Trad, TR",5.8,1,45,59.48953,-135.35909
"Rootbeer Float","Byron Glacier Wall > Portage > Anchorage & South Central Alaska > Alaska",https://www.mountainproject.com/route/109125533/rootbeer-float,3.0,-1,Sport,5.10a,1,95,60.75848,-148.84843
Gingerade,"The Sunny Side > Valdez Area Rock > Anchorage & South Central Alaska > Alaska",https://www.mountainproject.com/route/112361732/gingerade,3.0,-1,"Sport, Alpine",5.7,2,195,61.17201,-145.72496
Waterslide,"Byron Glacier Wall > Portage > Anchorage & South Central Alaska > Alaska",https://www.mountainproject.com/route/109122352/waterslide,3.0,-1,Sport,5.10a,1,85,60.75848,-148.84843
"Late Break-Up","Resolution Bluff > Seward Highway > Anchorage & South Central Alaska > Alaska",https://www.mountainproject.com/route/108710478/late-break-up,3.0,-1,Trad,5.10b,1,85,61.01484,-149.71649
"Keep it Like a Secret","Lower Pop Rock > East Grapefruit Rocks > Grapefruit Rocks > Fairbanks and Vicinity > Alaska",https://www.mountainproject.com/route/117688600/keep-it-like-a-secret,3.0,-1,Sport,5.10b,1,30,65.29304,-148.15959
Cosmic,"Right Cave > Weiner Lake Routes > Wookie Wall/Weiner Lake > Anchorage & South Central Alaska > Alaska",https://www.mountainproject.com/route/109181195/cosmic,3.0,-1,Sport,5.13b,1,60,61.8128,-148.1665
Roof-oh-lution,"Resolution Bluff > Seward Highway > Anchorage & South Central Alaska > Alaska",https://www.mountainproject.com/route/108787103/roof-oh-lution,3.0,-1,Sport,5.11,1,80,61.01484,-149.71649
"Love Sickness","Resolution Bluff > Seward Highway > Anchorage & South Central Alaska > Alaska",https://www.mountainproject.com/route/109226926/love-sickness,3.0,-1,Trad,5.11,1,70,61.01484,-149.71649
"Leggo My Ego","The Wedge > Anchorage & South Central Alaska > Alaska",https://www.mountainproject.com/route/110787222/leggo-my-ego,3.0,-1,"Sport, Alpine",5.10d,1,80,61.07919,-149.58605
"Sloppy peaches","Peanut gullery > Woznesensky Glacier > Kenai Peninsula > Alaska",https://www.mountainproject.com/route/108259993/sloppy-peaches,3.0,-1,"Sport, TR, Alpine",5.10,1,60,59.50553,-151.02905
"Chasm of Joy","Worthington Ridge Trail Routes > Valdez Area Rock > Anchorage & South Central Alaska > Alaska",https://www.mountainproject.com/route/112363825/chasm-of-joy,3.0,-1,"Trad, Alpine",5.7,1,50,61.16636,-145.72667
"King Ex","Falcon Slab/Zydeco Wall > Reed Lakes Bouldering and Climbing > Hatcher Pass > Anchorage & South Central Alaska > Alaska",https://www.mountainproject.com/route/109230456/king-ex,3.0,-1,"Trad, TR",5.9,1,105,61.83024,-149.1728
"Route 2 Upper Wall","43 Mile > Valdez Area Rock > Anchorage & South Central Alaska > Alaska",https://www.mountainproject.com/route/111950795/route-2-upper-wall,3.0,-1,"Sport, Alpine",5.10a/b,1,50,61.24233,-145.34356
"The Wetter the Better","Byron Glacier Wall > Portage > Anchorage & South Central Alaska > Alaska",https://www.mountainproject.com/route/109124055/the-wetter-the-better,3.0,-1,Sport,5.10d,2,,60.75848,-148.84843
"Dynamo Hum","Byron Glacier Wall > Portage > Anchorage & South Central Alaska > Alaska",https://www.mountainproject.com/route/109126081/dynamo-hum,3.0,-1,Sport,5.11a,1,95,60.75848,-148.84843
"Northurn lights dleight","The Sunny Side > Valdez Area Rock > Anchorage & South Central Alaska > Alaska",https://www.mountainproject.com/route/112361592/northurn-lights-dleight,3.0,-1,"Trad, Alpine",5.11a,2,195,61.17201,-145.72496
"Zydeco Fool","Falcon Slab/Zydeco Wall > Reed Lakes Bouldering and Climbing > Hatcher Pass > Anchorage & South Central Alaska > Alaska",https://www.mountainproject.com/route/109230296/zydeco-fool,3.0,-1,"Trad, TR",5.8,1,105,61.83024,-149.1728
"Route 3 Upper Wall","43 Mile > Valdez Area Rock > Anchorage & South Central Alaska > Alaska",https://www.mountainproject.com/route/111950785/route-3-upper-wall,3.0,-1,"Sport, Alpine",5.9-,1,60,61.24233,-145.34356
"Beast of Burden","The Wedge > Anchorage & South Central Alaska > Alaska",https://www.mountainproject.com/route/110787200/beast-of-burden,3.0,-1,"Trad, Alpine",5.10b/c,2,200,61.07919,-149.58605
"People Get Up And Drive Your Funky Soul","Lookout Rock!! > Valdez Area Rock > Anchorage & South Central Alaska > Alaska",https://www.mountainproject.com/route/112099678/people-get-up-and-drive-your-funky-soul,3.0,-1,"Sport, Alpine",5.11c,1,60,61.14031,-146.22083
"Salami Heist","The Sunny Side > Valdez Area Rock > Anchorage & South Central Alaska > Alaska",https://www.mountainproject.com/route/112353252/salami-heist,3.0,-1,"Trad, Alpine",5.7,1,90,61.17201,-145.72496
