Route,Location,URL,"Avg Stars","Your Stars","Route Type",Rating,Pitches,Length,"Area Latitude","Area Longitude"
"The Duke","John Wayne Boulder > Clearcut Boulders > Lost Horse > Northwest Region > Montana",https://www.mountainproject.com/route/113774839/the-duke,4.0,-1,Boulder,V4,1,18,46.10209,-114.27136
Gigarete,"Locomotive Boulders > Yankee Jim > Paradise Valley > Southwest Region > Montana",https://www.mountainproject.com/route/111788650/gigarete,3.9,-1,Boulder,V7,1,,45.05987,-110.78916
Uzumaki,"Uzumaki Boulder > District One > Hidden Lakes > Big Sky Area > Southwest Region > Montana",https://www.mountainproject.com/route/113523161/uzumaki,4.0,-1,Boulder,V4-5,1,,45.26245,-111.16111
"White Horse","Overhangatang Boulders > Hyalite Canyon > Southwest Region > Montana",https://www.mountainproject.com/route/111791680/white-horse,3.8,-1,Boulder,V6,1,,45.54518,-111.04371
"The Battle of Hoth","Upper Nunnery > The Nunnery > West Side > Gallatin Canyon > Southwest Region > Montana",https://www.mountainproject.com/route/110812461/the-battle-of-hoth,4.0,-1,Boulder,V8,1,,45.41259,-111.23623
"Tick Tick Boom","Explosive Boulder > Explosive Area > Cascade Creek > West Side > Gallatin Canyon > Southwest Region > Montana",https://www.mountainproject.com/route/107809960/tick-tick-boom,4.0,-1,"Boulder, Alpine",V3,1,,45.3913,-111.239
Skywalker,"Jedi Boulders > Yankee Jim > Paradise Valley > Southwest Region > Montana",https://www.mountainproject.com/route/112206451/skywalker,4.0,-1,Boulder,V7,1,,45.17536,-110.87468
"Grumpy Old Men","Family Wall > Entrance Gully > Whiskey Proper > Whiskey Gulch > Southwest Region > Montana",https://www.mountainproject.com/route/115447402/grumpy-old-men,4.0,-1,Boulder,"V0 R",1,25,45.88439,-112.30626
"Crocodile Left","Overhangatang Boulders > Hyalite Canyon > Southwest Region > Montana",https://www.mountainproject.com/route/111791697/crocodile-left,4.0,-1,Boulder,V8,1,,45.54518,-111.04371
"Fear Factor","Fear Factor > Explosive Area > Cascade Creek > West Side > Gallatin Canyon > Southwest Region > Montana",https://www.mountainproject.com/route/108306952/fear-factor,4.0,-1,"Boulder, Alpine",V6,1,,45.39067,-111.23952
"The Enchiridion","Lower Nunnery > The Nunnery > West Side > Gallatin Canyon > Southwest Region > Montana",https://www.mountainproject.com/route/110790660/the-enchiridion,4.0,-1,Boulder,V5,1,,45.41369,-111.23123
"Montana Beef","Cattle Pond > Homestake Pass > Southwest Region > Montana",https://www.mountainproject.com/route/112354968/montana-beef,4.0,-1,Boulder,V11,1,,45.91589,-112.36259
"Digby the Dangerous","Digby Area > Neat Rock Bouldering > Neat Rock Area > Madison River Area > Southwest Region > Montana",https://www.mountainproject.com/route/113912373/digby-the-dangerous,4.0,-1,Boulder,V7,1,,45.63284,-111.54421
"Galactic Tide","The Outer Limits Boulder > Hidden Lakes > Big Sky Area > Southwest Region > Montana",https://www.mountainproject.com/route/113553593/galactic-tide,4.0,-1,Boulder,V8,1,,45.25924,-111.16545
"Cosmic Microwave Background (CMB)","The Outer Limits Boulder > Hidden Lakes > Big Sky Area > Southwest Region > Montana",https://www.mountainproject.com/route/113553579/cosmic-microwave-background-cmb,4.0,-1,Boulder,V7,1,,45.25924,-111.16545
"Twist of Fate","Uzumaki Boulder > District One > Hidden Lakes > Big Sky Area > Southwest Region > Montana",https://www.mountainproject.com/route/113523181/twist-of-fate,4.0,-1,Boulder,V6,1,,45.26245,-111.16111
"Sweet Ambrosia","Hollow Earth Boulder > District Two (The Meadow) > Hidden Lakes > Big Sky Area > Southwest Region > Montana",https://www.mountainproject.com/route/113524391/sweet-ambrosia,4.0,-1,Boulder,V5,1,,45.26247,-111.16439
"The Eye of the Pyramid","Upper Nunnery > The Nunnery > West Side > Gallatin Canyon > Southwest Region > Montana",https://www.mountainproject.com/route/110812605/the-eye-of-the-pyramid,4.0,-1,Boulder,V5,1,,45.41259,-111.23623
"The Big Bang","The Outer Limits Boulder > Hidden Lakes > Big Sky Area > Southwest Region > Montana",https://www.mountainproject.com/route/113553570/the-big-bang,4.0,-1,Boulder,V5,1,,45.25924,-111.16545
Q,"Q Boulder > District Two (The Meadow) > Hidden Lakes > Big Sky Area > Southwest Region > Montana",https://www.mountainproject.com/route/113527058/q,4.0,-1,Boulder,V7,1,,45.26224,-111.16451
"The Darkside","Jedi Boulders > Yankee Jim > Paradise Valley > Southwest Region > Montana",https://www.mountainproject.com/route/112206485/the-darkside,4.0,-1,Boulder,V6,1,,45.17536,-110.87468
"The Montana Angler","The Beach > Yankee Jim > Paradise Valley > Southwest Region > Montana",https://www.mountainproject.com/route/111674725/the-montana-angler,4.0,-1,Boulder,V5,1,,45.17087,-110.86994
"Indian Summer","Indian Summer Boulder > District Two (The Meadow) > Hidden Lakes > Big Sky Area > Southwest Region > Montana",https://www.mountainproject.com/route/113524115/indian-summer,4.0,-1,Boulder,V5,1,,45.26237,-111.1643
Leviathan,"Leviathan Boulder > Cascade Creek > West Side > Gallatin Canyon > Southwest Region > Montana",https://www.mountainproject.com/route/112206401/leviathan,4.0,-1,"Boulder, Alpine",V6,1,,45.39179,-111.23683
"Intergalactic Jellyfish","Primo Boulder > Cascade Creek > West Side > Gallatin Canyon > Southwest Region > Montana",https://www.mountainproject.com/route/112206389/intergalactic-jellyfish,4.0,-1,"Boulder, Alpine",V6,1,,45.38914,-111.23818
"Midnight traverse","UM Campus > Northwest Region > Montana",https://www.mountainproject.com/route/115318123/midnight-traverse,4.0,-1,Boulder,V2+,1,80,46.86346,-113.98244
"stem city","UM Campus > Northwest Region > Montana",https://www.mountainproject.com/route/115318156/stem-city,4.0,-1,Boulder,"V1- PG13",1,30,46.86346,-113.98244
"Fire escape","UM Campus > Northwest Region > Montana",https://www.mountainproject.com/route/115318172/fire-escape,4.0,-1,Boulder,"V1- R",1,25,46.86346,-113.98244
"Bobby Dazzla","Digby Area > Neat Rock Bouldering > Neat Rock Area > Madison River Area > Southwest Region > Montana",https://www.mountainproject.com/route/113912385/bobby-dazzla,4.0,-1,Boulder,V7,1,,45.63284,-111.54421
Yesteryear,"Cow Skull Boulder > Neat Rock Bouldering > Neat Rock Area > Madison River Area > Southwest Region > Montana",https://www.mountainproject.com/route/115563177/yesteryear,4.0,-1,Boulder,V5,1,10,45.6336,-111.54685
"Mrs. Leslie","Locomotive Boulders > Yankee Jim > Paradise Valley > Southwest Region > Montana",https://www.mountainproject.com/route/111788639/mrs-leslie,3.8,-1,Boulder,V8,1,,45.05987,-110.78916
"Big Dipper","Mile 18 > South Central Region > Montana",https://www.mountainproject.com/route/111796827/big-dipper,4.0,-1,Boulder,V12,1,,45.32767,-110.23044
"Bring the Hate","Jedi Boulders > Yankee Jim > Paradise Valley > Southwest Region > Montana",https://www.mountainproject.com/route/112206498/bring-the-hate,4.0,-1,Boulder,V7,1,,45.17536,-110.87468
"Bold as Love","Out of Africa Boulder > District One > Hidden Lakes > Big Sky Area > Southwest Region > Montana",https://www.mountainproject.com/route/113523112/bold-as-love,4.0,-1,Boulder,V3,1,,45.26226,-111.16103
"November Rain","The atrium > Wolf Butte > Northwest Region > Montana",https://www.mountainproject.com/route/113840388/november-rain,4.0,-1,Boulder,V4,1,10,47.13787,-110.49875
"Ghost Town","Mile 18 > South Central Region > Montana",https://www.mountainproject.com/route/112114457/ghost-town,4.0,-1,Boulder,V7,1,,45.32767,-110.23044
"Globe Trotter","Altitude Boulder > The Force Area > Whiskey Proper > Whiskey Gulch > Southwest Region > Montana",https://www.mountainproject.com/route/115448502/globe-trotter,4.0,-1,Boulder,V3,1,15,45.88371,-112.30482
Supernova,"Mile 18 > South Central Region > Montana",https://www.mountainproject.com/route/111796860/supernova,4.0,-1,Boulder,V10,1,,45.32767,-110.23044
"High Output Low","Locomotive Boulders > Yankee Jim > Paradise Valley > Southwest Region > Montana",https://www.mountainproject.com/route/111781017/high-output-low,4.0,-1,Boulder,V10,1,,45.05987,-110.78916
"Spears of Madness","Mile 18 > South Central Region > Montana",https://www.mountainproject.com/route/111796838/spears-of-madness,4.0,-1,Boulder,V10,1,,45.32767,-110.23044
"Carpenter's Direct","Carpenter Boulder > Cascade Creek > West Side > Gallatin Canyon > Southwest Region > Montana",https://www.mountainproject.com/route/107812379/carpenters-direct,4.0,-1,"Boulder, Alpine",V8,1,,45.3913,-111.239
"Armour Sit","Mile 18 > South Central Region > Montana",https://www.mountainproject.com/route/111796907/armour-sit,4.0,-1,Boulder,V9,1,,45.32767,-110.23044
"Gamma Ray","Mile 18 > South Central Region > Montana",https://www.mountainproject.com/route/112114479/gamma-ray,4.0,-1,Boulder,V8,1,,45.32767,-110.23044
"One Inch Punch","Lower Crags > Sweathouse Creek Crags > Northwest Region > Montana",https://www.mountainproject.com/route/112892501/one-inch-punch,4.0,-1,Boulder,V6,1,15,46.42251,-114.24683
"Big Sky Grit","Big Sky Grit > Sagebrush Point Boulders > Greek Creek and Surroundings > Big Sky Area > Southwest Region > Montana",https://www.mountainproject.com/route/110219523/big-sky-grit,4.0,-1,Boulder,V2+,1,14,45.05998,-111.18899
"White Coyote","The Beach > Yankee Jim > Paradise Valley > Southwest Region > Montana",https://www.mountainproject.com/route/111687566/white-coyote,4.0,-1,Boulder,V8,1,,45.17087,-110.86994
"Wave Runner","Wave Boulder > The West Side > Whiskey Proper > Whiskey Gulch > Southwest Region > Montana",https://www.mountainproject.com/route/117361468/wave-runner,4.0,-1,Boulder,V4,1,20,45.88338,-112.30906
Tombstone,"The grave yard > Wolf Butte > Northwest Region > Montana",https://www.mountainproject.com/route/112568741/tombstone,4.0,-1,Boulder,V0,1,,47.13342,-110.49331
"Fruh Friday","The Beach > Yankee Jim > Paradise Valley > Southwest Region > Montana",https://www.mountainproject.com/route/111796716/fruh-friday,4.0,-1,Boulder,V4,1,,45.17087,-110.86994
"Excavation Optional","Upper Falls > Memorial Falls > Northwest Region > Montana",https://www.mountainproject.com/route/113223747/excavation-optional,4.0,-1,Boulder,V2,1,15,46.91478,-110.69328
"Hammer and Nail","Carpenter Boulder > Cascade Creek > West Side > Gallatin Canyon > Southwest Region > Montana",https://www.mountainproject.com/route/107812386/hammer-and-nail,4.0,-1,"Boulder, Alpine","V2-3 PG13",1,,45.3913,-111.239
"Hymenoptera (AKA the Gargoyle)","The Gargoyle Boulder > Cascade Creek > West Side > Gallatin Canyon > Southwest Region > Montana",https://www.mountainproject.com/route/108204906/hymenoptera-aka-the-gargoyle,3.8,-1,"Boulder, Alpine",V6+,1,,45.39017,-111.23792
"Super Trooper (Right Exit)","Ranger Boulder > Campground Boulders > Yankee Jim > Paradise Valley > Southwest Region > Montana",https://www.mountainproject.com/route/118012304/super-trooper-right-exit,4.0,-1,Boulder,V7,1,12,45.18346,-110.88865
"Sheep Herder","Sheep Boulder > Flying Buttress Boulders > Bear Trap Road Boulders > Madison River Area > Southwest Region > Montana",https://www.mountainproject.com/route/115687514/sheep-herder,3.8,-1,Boulder,V4,1,8,45.5878,-111.57662
"Montana's Most Wanted","Most Wanted Boulder > Campground Boulders > Yankee Jim > Paradise Valley > Southwest Region > Montana",https://www.mountainproject.com/route/111780702/montanas-most-wanted,3.8,-1,Boulder,V7,1,,45.1844,-110.88941
"The Fallen","Center Line Boulder > Flying Buttress Boulders > Bear Trap Road Boulders > Madison River Area > Southwest Region > Montana",https://www.mountainproject.com/route/111615705/the-fallen,3.7,-1,Boulder,V7,1,25,45.58776,-111.57663
"Out of Africa","Out of Africa Boulder > District One > Hidden Lakes > Big Sky Area > Southwest Region > Montana",https://www.mountainproject.com/route/113523102/out-of-africa,3.7,-1,Boulder,V3,1,,45.26226,-111.16103
"Genghis Tron","Genghis Tron Boulder > Campground Boulders > Yankee Jim > Paradise Valley > Southwest Region > Montana",https://www.mountainproject.com/route/111780858/genghis-tron,3.3,-1,Boulder,V5,1,,45.18476,-110.88994
"Lichen & Loam","Bad Rock Canyon > Northwest Region > Montana",https://www.mountainproject.com/route/113703372/lichen-loam,3.5,-1,Boulder,V2,1,16,48.38554,-114.10253
Pterodunktyl,"Pterodunktyl Boulder(s) > Cascade Creek > West Side > Gallatin Canyon > Southwest Region > Montana",https://www.mountainproject.com/route/117618847/pterodunktyl,3.5,-1,"Boulder, Alpine",V8-9,1,35,45.38951,-111.23455
"Tick Season","Tick Boulder > Neat Rock Bouldering > Neat Rock Area > Madison River Area > Southwest Region > Montana",https://www.mountainproject.com/route/115563133/tick-season,3.5,-1,Boulder,V2+,1,15,45.63347,-111.54606
"Screamin' Skyscraper","Whitewater Wall > Sagebrush Point Boulders > Greek Creek and Surroundings > Big Sky Area > Southwest Region > Montana",https://www.mountainproject.com/route/109244477/screamin-skyscraper,3.5,-1,Boulder,V3,1,15,45.3907,-111.20063
"Drone Strike","Most Wanted Boulder > Campground Boulders > Yankee Jim > Paradise Valley > Southwest Region > Montana",https://www.mountainproject.com/route/111780992/drone-strike,3.5,-1,Boulder,V10,1,,45.1844,-110.88941
"Carpenter's Traverse","Carpenter Boulder > Cascade Creek > West Side > Gallatin Canyon > Southwest Region > Montana",https://www.mountainproject.com/route/107812349/carpenters-traverse,3.5,-1,"Boulder, Alpine",V6,1,,45.3913,-111.239
"Feels Like Glass","The Beach > Yankee Jim > Paradise Valley > Southwest Region > Montana",https://www.mountainproject.com/route/111674733/feels-like-glass,3.5,-1,Boulder,V5,1,,45.17087,-110.86994
"Central Limit Theorem","Carpenter Boulder > Cascade Creek > West Side > Gallatin Canyon > Southwest Region > Montana",https://www.mountainproject.com/route/107812432/central-limit-theorem,3.5,-1,"Boulder, Alpine",V3-4,1,,45.3913,-111.239
Predator,"Lower Nunnery > The Nunnery > West Side > Gallatin Canyon > Southwest Region > Montana",https://www.mountainproject.com/route/110790824/predator,3.2,-1,Boulder,V5+,1,,45.41369,-111.23123
"Quail Hunting With Dick Cheney","Explosive Boulder > Explosive Area > Cascade Creek > West Side > Gallatin Canyon > Southwest Region > Montana",https://www.mountainproject.com/route/107810038/quail-hunting-with-dick-cheney,3.3,-1,"Boulder, Alpine",V6-7,1,,45.3913,-111.239
"Fire In The Hole","Explosive Boulder > Explosive Area > Cascade Creek > West Side > Gallatin Canyon > Southwest Region > Montana",https://www.mountainproject.com/route/107810075/fire-in-the-hole,3.3,-1,"Boulder, Alpine",V4,1,,45.3913,-111.239
"Men At Work","Men At Work Boulder > Flying Buttress Boulders > Bear Trap Road Boulders > Madison River Area > Southwest Region > Montana",https://www.mountainproject.com/route/111574660/men-at-work,3.0,-1,Boulder,V9,1,,45.58775,-111.57666
"Sunny Butterflies","Neat Rock Main Formation > Neat Rock Area > Madison River Area > Southwest Region > Montana",https://www.mountainproject.com/route/111606208/sunny-butterflies,3.0,-1,"Trad, Boulder","5.8+ V1 PG13",1,50,45.63251,-111.54382
"New Wave","Lower Nunnery > The Nunnery > West Side > Gallatin Canyon > Southwest Region > Montana",https://www.mountainproject.com/route/110790791/new-wave,3.0,-1,Boulder,V5,1,,45.41369,-111.23123
"Wave Rider","Wave Boulder > The West Side > Whiskey Proper > Whiskey Gulch > Southwest Region > Montana",https://www.mountainproject.com/route/112269353/wave-rider,3.0,-1,Boulder,V1,1,15,45.88338,-112.30906
"The Golden Apple","Upper Nunnery > The Nunnery > West Side > Gallatin Canyon > Southwest Region > Montana",https://www.mountainproject.com/route/110812614/the-golden-apple,3.0,-1,Boulder,V3,1,,45.41259,-111.23623
"Standard Overhangatang","Overhangatang Boulders > Hyalite Canyon > Southwest Region > Montana",https://www.mountainproject.com/route/117247537/standard-overhangatang,3.0,-1,Boulder,V3,1,12,45.54518,-111.04371
"The Crocodilian","Overhangatang Boulders > Hyalite Canyon > Southwest Region > Montana",https://www.mountainproject.com/route/111793978/the-crocodilian,3.0,-1,Boulder,V10,1,,45.54518,-111.04371
Z-Crack,"Z-Crack Boulder > Flying Buttress Boulders > Bear Trap Road Boulders > Madison River Area > Southwest Region > Montana",https://www.mountainproject.com/route/116174653/z-crack,3.0,-1,Boulder,V1,1,10,45.5879,-111.57671
"Warm Up Right","Warm Up Boulder > Flying Buttress Boulders > Bear Trap Road Boulders > Madison River Area > Southwest Region > Montana",https://www.mountainproject.com/route/116174542/warm-up-right,3.0,-1,Boulder,V0-,1,15,45.58764,-111.57676
"We Can Kill It","Lower Nunnery > The Nunnery > West Side > Gallatin Canyon > Southwest Region > Montana",https://www.mountainproject.com/route/111927102/we-can-kill-it,3.0,-1,Boulder,V5,1,,45.41369,-111.23123
"Lava Lunge SDS","Lava Pit > Cascade Creek > West Side > Gallatin Canyon > Southwest Region > Montana",https://www.mountainproject.com/route/107809820/lava-lunge-sds,2.8,-1,"Boulder, Alpine",V6,1,,45.39144,-111.23927
"Purse Cutter","Bad Rock Canyon > Northwest Region > Montana",https://www.mountainproject.com/route/113703503/purse-cutter,3.0,-1,Boulder,V4,1,12,48.38554,-114.10253
"Seizure of Strength","SOS Boulder > SOS Area > Cascade Creek > West Side > Gallatin Canyon > Southwest Region > Montana",https://www.mountainproject.com/route/117745470/seizure-of-strength,3.0,-1,"Boulder, Alpine",V5,1,15,45.39187,-111.23915
"Little Nosey Girl Who Should Have Minded Her Manners","Family Wall > Entrance Gully > Whiskey Proper > Whiskey Gulch > Southwest Region > Montana",https://www.mountainproject.com/route/115447433/little-nosey-girl-who-should-have-minded-her-manners,3.0,-1,Boulder,"V0+ R",1,20,45.88439,-112.30626
"If It Bleeds","Lower Nunnery > The Nunnery > West Side > Gallatin Canyon > Southwest Region > Montana",https://www.mountainproject.com/route/110793056/if-it-bleeds,3.0,-1,Boulder,V8,1,,45.41369,-111.23123
"Andrew's Bane","Bad Rock Canyon > Northwest Region > Montana",https://www.mountainproject.com/route/113703441/andrews-bane,3.0,-1,Boulder,V3,1,16,48.38554,-114.10253
"Orange Crystal","Roadside Boulder > Diamond & Roadside Area > Bear Trap Road Boulders > Madison River Area > Southwest Region > Montana",https://www.mountainproject.com/route/115687275/orange-crystal,3.0,-1,Boulder,V1,1,15,45.59328,-111.56889
"Beautiful People","Super Rad Boulder > Mother Lode Boulders > Lost Horse > Northwest Region > Montana",https://www.mountainproject.com/route/117652344/beautiful-people,3.0,-1,Boulder,V2-3,1,14,46.09677,-114.25546
"Pine's Bluff","Bad Rock Canyon > Northwest Region > Montana",https://www.mountainproject.com/route/113703447/pines-bluff,3.0,-1,Boulder,V4,1,16,48.38554,-114.10253
"More Than a Carpenter","Moonshine Boulder > New World Gulch Bouldering > Bear Canyon > Southwest Region > Montana",https://www.mountainproject.com/route/117675137/more-than-a-carpenter,3.0,-1,Boulder,V4,1,15,45.59779,-110.93559
Stiegl,"Uzumaki Boulder > District One > Hidden Lakes > Big Sky Area > Southwest Region > Montana",https://www.mountainproject.com/route/113523171/stiegl,3.0,-1,Boulder,V5,1,,45.26245,-111.16111
"Peaches and Cream","Peaches Boulder > SOS Area > Cascade Creek > West Side > Gallatin Canyon > Southwest Region > Montana",https://www.mountainproject.com/route/117686421/peaches-and-cream,3.0,-1,"Boulder, Alpine",V5,1,,45.39207,-111.23853
"Maya Don't Care","Maya's Boulder > District One > Hidden Lakes > Big Sky Area > Southwest Region > Montana",https://www.mountainproject.com/route/113523319/maya-dont-care,3.0,-1,Boulder,V4,1,,45.26237,-111.16082
"Fragments of Time","House of Leaves Boulder > Madison River Area > Southwest Region > Montana",https://www.mountainproject.com/route/110289337/fragments-of-time,3.0,-1,Boulder,V3-4,1,,45.59327,-111.57221
"The Battle of Endor","Upper Nunnery > The Nunnery > West Side > Gallatin Canyon > Southwest Region > Montana",https://www.mountainproject.com/route/110812576/the-battle-of-endor,3.0,-1,Boulder,V6,1,,45.41259,-111.23623
"Harmony in Ultraviolet","Locomotive Boulders > Yankee Jim > Paradise Valley > Southwest Region > Montana",https://www.mountainproject.com/route/111788632/harmony-in-ultraviolet,3.0,-1,Boulder,V10,1,,45.05987,-110.78916
"Hookers in Training","Locomotive Boulders > Yankee Jim > Paradise Valley > Southwest Region > Montana",https://www.mountainproject.com/route/112010997/hookers-in-training,3.0,-1,Boulder,V9,1,,45.05987,-110.78916
"Flock of Seagulls","Lower Nunnery > The Nunnery > West Side > Gallatin Canyon > Southwest Region > Montana",https://www.mountainproject.com/route/110792914/flock-of-seagulls,3.0,-1,Boulder,V4,1,,45.41369,-111.23123
"The Fin Direct","Locomotive Boulders > Yankee Jim > Paradise Valley > Southwest Region > Montana",https://www.mountainproject.com/route/111781059/the-fin-direct,3.0,-1,Boulder,V9,1,,45.05987,-110.78916
"Unicycle Riding Bear","Circus Boulder > District One > Hidden Lakes > Big Sky Area > Southwest Region > Montana",https://www.mountainproject.com/route/113523305/unicycle-riding-bear,3.0,-1,Boulder,V4,1,,45.2624,-111.16137
"Shark Attack","Lower Nunnery > The Nunnery > West Side > Gallatin Canyon > Southwest Region > Montana",https://www.mountainproject.com/route/110792897/shark-attack,3.0,-1,Boulder,V0,1,,45.41369,-111.23123
"Mikey's Out of It","Sweet Tip > Mile 13 Boulders > Paradise Valley > Southwest Region > Montana",https://www.mountainproject.com/route/109458728/mikeys-out-of-it,3.0,-1,Boulder,V1,1,10,45.17019,-110.85694
Magnum,"Lava Pit > Cascade Creek > West Side > Gallatin Canyon > Southwest Region > Montana",https://www.mountainproject.com/route/107809936/magnum,3.0,-1,"Boulder, Alpine",V6,1,,45.39144,-111.23927
"Tony's Jump Problem","Carpenter Boulder > Cascade Creek > West Side > Gallatin Canyon > Southwest Region > Montana",https://www.mountainproject.com/route/107812418/tonys-jump-problem,3.0,-1,"Boulder, Alpine",V2-3,1,,45.3913,-111.239
"Follow the Wind","Wind Boulder > Neat Rock Bouldering > Neat Rock Area > Madison River Area > Southwest Region > Montana",https://www.mountainproject.com/route/116644175/follow-the-wind,3.0,-1,Boulder,V5,1,10,45.63352,-111.54681
"Rising From The Depths","Swamp Rock > Hyalite Canyon > Southwest Region > Montana",https://www.mountainproject.com/route/117570076/rising-from-the-depths,3.0,-1,Boulder,V9-10,1,,45.50767,-110.99518
"Cloud Rider","McCartney Mountain > Southwest Region > Montana",https://www.mountainproject.com/route/115963829/cloud-rider,3.0,-1,Boulder,"V0-1 R",1,10,45.52903,-112.62566
"Bear Trap Slap","Bear Trap Boulder > Bear Trap Road Boulders > Madison River Area > Southwest Region > Montana",https://www.mountainproject.com/route/116174178/bear-trap-slap,3.0,-1,Boulder,V4,1,10,45.57564,-111.59404
Fungislide,"Lil' Dude > Soul Kitchen > End of the Road > Whiskey Gulch > Southwest Region > Montana",https://www.mountainproject.com/route/117066541/fungislide,3.0,-1,Boulder,V3,1,12,45.88094,-112.29755
"T-Rexy and I Know It","Pterodunktyl Boulder(s) > Cascade Creek > West Side > Gallatin Canyon > Southwest Region > Montana",https://www.mountainproject.com/route/117737699/t-rexy-and-i-know-it,3.0,-1,"Boulder, Alpine",V8,1,15,45.38951,-111.23455
"H Maddas","The Banana Stand Boulder > Sudden Valley > End of the Road > Whiskey Gulch > Southwest Region > Montana",https://www.mountainproject.com/route/117066374/h-maddas,3.0,-1,Boulder,V1,1,25,45.88068,-112.29799
"Dark Passenger","Lower Nunnery > The Nunnery > West Side > Gallatin Canyon > Southwest Region > Montana",https://www.mountainproject.com/route/117800863/dark-passenger,3.0,-1,Boulder,"V4 R",1,20,45.41369,-111.23123
"Close Shave","The Main Event Boulder > Soul Kitchen > End of the Road > Whiskey Gulch > Southwest Region > Montana",https://www.mountainproject.com/route/117066622/close-shave,3.0,-1,Boulder,"V2 PG13",1,20,45.88123,-112.297
"Not For The Faint of Height","Reachy Boulder > Campground Boulders > Yankee Jim > Paradise Valley > Southwest Region > Montana",https://www.mountainproject.com/route/117018232/not-for-the-faint-of-height,3.0,-1,Boulder,V3-,1,10,45.18259,-110.887
Nails,"Bear Trap Boulder > Bear Trap Road Boulders > Madison River Area > Southwest Region > Montana",https://www.mountainproject.com/route/116174140/nails,3.0,-1,Boulder,V3,1,10,45.57564,-111.59404
"Cosmic Sailing","The Space Cowboy Boulder > Lava Lake > West Side > Gallatin Canyon > Southwest Region > Montana",https://www.mountainproject.com/route/117821999/cosmic-sailing,3.0,-1,"Boulder, Alpine",V4,1,15,45.37953,-111.2443
"Sharptooth Arete","Pterodunktyl Boulder(s) > Cascade Creek > West Side > Gallatin Canyon > Southwest Region > Montana",https://www.mountainproject.com/route/117786220/sharptooth-arete,3.0,-1,"Boulder, Alpine",V3,1,10,45.38951,-111.23455
"Bridget's Problem","Project Boulder > Neat Rock Bouldering > Neat Rock Area > Madison River Area > Southwest Region > Montana",https://www.mountainproject.com/route/116174818/bridgets-problem,3.0,-1,Boulder,V3,1,10,45.63353,-111.54612
"North Face","Wavy Arete Boulder > Flying Buttress Boulders > Bear Trap Road Boulders > Madison River Area > Southwest Region > Montana",https://www.mountainproject.com/route/116191772/north-face,3.0,-1,Boulder,V4,1,8,45.58767,-111.57679
"Unknown Wind","Wind Boulder > Neat Rock Bouldering > Neat Rock Area > Madison River Area > Southwest Region > Montana",https://www.mountainproject.com/route/115563155/unknown-wind,3.0,-1,Boulder,V3+,1,8,45.63352,-111.54681
"Barley Pop","Soda Boulder > Flying Buttress Boulders > Bear Trap Road Boulders > Madison River Area > Southwest Region > Montana",https://www.mountainproject.com/route/115687455/barley-pop,3.0,-1,Boulder,V3-,1,10,45.58791,-111.57682
"Slapstick Traverse","Phipps Park > Billings Rimrocks > South Central Region > Montana",https://www.mountainproject.com/route/110506301/slapstick-traverse,3.0,-1,Boulder,V4,1,,45.816,-108.6882
Ex-Military,"Riverside Retreat > Stormcastle > Gallatin Canyon > Southwest Region > Montana",https://www.mountainproject.com/route/113679237/ex-military,3.0,-1,Boulder,V5,1,16,45.41566,-111.23125
Gastoner,"Bad Rock Canyon > Northwest Region > Montana",https://www.mountainproject.com/route/113703433/gastoner,3.0,-1,Boulder,V3,1,16,48.38554,-114.10253
"Scoop Thing","Project Boulder > Neat Rock Bouldering > Neat Rock Area > Madison River Area > Southwest Region > Montana",https://www.mountainproject.com/route/116174809/scoop-thing,3.0,-1,Boulder,V0,1,10,45.63353,-111.54612
Horcrux,"Upper Sagebrush > Sagebrush Point Boulders > Greek Creek and Surroundings > Big Sky Area > Southwest Region > Montana",https://www.mountainproject.com/route/117863990/horcrux,3.0,-1,Boulder,V4,1,18,45.39157,-111.19842
"Space Balls","The Outer Limits Boulder > Hidden Lakes > Big Sky Area > Southwest Region > Montana",https://www.mountainproject.com/route/114597611/space-balls,3.0,-1,Boulder,V2,1,12,45.25924,-111.16545
"Ohio Beef","Upper Nunnery > The Nunnery > West Side > Gallatin Canyon > Southwest Region > Montana",https://www.mountainproject.com/route/112031877/ohio-beef,3.0,-1,Boulder,V9,1,,45.41259,-111.23623
"Achilles Heel","Riverside Retreat > Stormcastle > Gallatin Canyon > Southwest Region > Montana",https://www.mountainproject.com/route/113679301/achilles-heel,3.0,-1,Boulder,V3+,1,18,45.41566,-111.23125
"Carnal Pleasures","Pinhead's Playhouse > Upper Bear Trap Canyon > Madison River Area > Southwest Region > Montana",https://www.mountainproject.com/route/113735013/carnal-pleasures,3.0,-1,Boulder,V9,1,15,45.46766,-111.63925
"Black Swan","Hollow Earth Boulder > District Two (The Meadow) > Hidden Lakes > Big Sky Area > Southwest Region > Montana",https://www.mountainproject.com/route/113526963/black-swan,3.0,-1,Boulder,V7,1,,45.26247,-111.16439
"Send Train","Bad Rock Canyon > Northwest Region > Montana",https://www.mountainproject.com/route/113703460/send-train,2.8,-1,Boulder,V1-2,1,16,48.38554,-114.10253
"Kindred Spirits","Lower Nunnery > The Nunnery > West Side > Gallatin Canyon > Southwest Region > Montana",https://www.mountainproject.com/route/117800824/kindred-spirits,3.0,-1,Boulder,"V2 R",1,20,45.41369,-111.23123
"The Tunguska Event","The Outer Limits Boulder > Hidden Lakes > Big Sky Area > Southwest Region > Montana",https://www.mountainproject.com/route/113553643/the-tunguska-event,3.0,-1,Boulder,V7,1,,45.25924,-111.16545
"The Lich","Lower Nunnery > The Nunnery > West Side > Gallatin Canyon > Southwest Region > Montana",https://www.mountainproject.com/route/112928866/the-lich,3.0,-1,Boulder,V5,1,,45.41369,-111.23123
Vicarious,"Vicarious Boulder > Vicarious Area > Pull Out Area > Neat Rock Bouldering > Neat Rock Area > Madison River Area > Southwest Region > Montana",https://www.mountainproject.com/route/117713908/vicarious,3.0,-1,Boulder,V5,1,10,45.63409,-111.54366
"To Crimp or Not to Crimp","Block Top Jr. > Lava Lake > West Side > Gallatin Canyon > Southwest Region > Montana",https://www.mountainproject.com/route/117357848/to-crimp-or-not-to-crimp,3.0,-1,"Boulder, Alpine",V3+,1,15,45.37982,-111.24419
"Vanilla Gorilla","Locomotive Boulders > Yankee Jim > Paradise Valley > Southwest Region > Montana",https://www.mountainproject.com/route/111780999/vanilla-gorilla,3.0,-1,Boulder,V11,1,,45.05987,-110.78916
"Instant Crush","House of Leaves Boulder > Madison River Area > Southwest Region > Montana",https://www.mountainproject.com/route/110289352/instant-crush,3.0,-1,Boulder,V2,1,,45.59327,-111.57221
"Ejector Seat","Locomotive Boulders > Yankee Jim > Paradise Valley > Southwest Region > Montana",https://www.mountainproject.com/route/110933806/ejector-seat,3.0,-1,Boulder,V8,1,,45.05987,-110.78916
"Rabbit Hole","Locomotive Boulders > Yankee Jim > Paradise Valley > Southwest Region > Montana",https://www.mountainproject.com/route/111797143/rabbit-hole,3.0,-1,Boulder,V11,1,,45.05987,-110.78916
"Ezy Ryder","Out of Africa Boulder > District One > Hidden Lakes > Big Sky Area > Southwest Region > Montana",https://www.mountainproject.com/route/113523088/ezy-ryder,3.0,-1,Boulder,V4,1,,45.26226,-111.16103
"Spread 'Em Left","Bolted Boulder > The Main Area > Mother Lode Boulders > Lost Horse > Northwest Region > Montana",https://www.mountainproject.com/route/113830372/spread-em-left,3.0,-1,Boulder,V7,1,16,46.09682,-114.25542
"True North","Maya's Boulder > District One > Hidden Lakes > Big Sky Area > Southwest Region > Montana",https://www.mountainproject.com/route/113523329/true-north,3.0,-1,Boulder,V6,1,,45.26237,-111.16082
"Uncaged Monkey","Locomotive Boulders > Yankee Jim > Paradise Valley > Southwest Region > Montana",https://www.mountainproject.com/route/113595716/uncaged-monkey,3.0,-1,Boulder,V3-4,1,10,45.05987,-110.78916
"Tweedle Dee","Tweedle Area > Neat Rock Bouldering > Neat Rock Area > Madison River Area > Southwest Region > Montana",https://www.mountainproject.com/route/110289284/tweedle-dee,3.0,-1,Boulder,V5,1,15,45.63218,-111.54393
Osteoporosis,"Senile Boulder > Senile Gully > Whiskey Proper > Whiskey Gulch > Southwest Region > Montana",https://www.mountainproject.com/route/117361566/osteoporosis,3.0,-1,Boulder,V3,1,10,45.88396,-112.30617
"Wesley Crusher","Q Boulder > District Two (The Meadow) > Hidden Lakes > Big Sky Area > Southwest Region > Montana",https://www.mountainproject.com/route/113527067/wesley-crusher,3.0,-1,Boulder,V6,1,,45.26224,-111.16451
"Peter's Big Slab","Lower Nunnery > The Nunnery > West Side > Gallatin Canyon > Southwest Region > Montana",https://www.mountainproject.com/route/110790774/peters-big-slab,3.0,-1,Boulder,V2,1,,45.41369,-111.23123
Devour,"Vicarious Boulder > Vicarious Area > Pull Out Area > Neat Rock Bouldering > Neat Rock Area > Madison River Area > Southwest Region > Montana",https://www.mountainproject.com/route/117713874/devour,3.0,-1,Boulder,V1,1,10,45.63409,-111.54366
"Endless Teeth","Genghis Tron Boulder > Campground Boulders > Yankee Jim > Paradise Valley > Southwest Region > Montana",https://www.mountainproject.com/route/111780866/endless-teeth,3.0,-1,Boulder,V7,1,,45.18476,-110.88994
"Southern State of Mind","Whitewater Wall > Sagebrush Point Boulders > Greek Creek and Surroundings > Big Sky Area > Southwest Region > Montana",https://www.mountainproject.com/route/109243333/southern-state-of-mind,3.0,-1,Boulder,"V4 PG13",1,25,45.3907,-111.20063
"Jawline for Days","Prospector Crag > Memorial Falls > Northwest Region > Montana",https://www.mountainproject.com/route/113244455/jawline-for-days,3.0,-1,Boulder,V3-,1,15,46.91644,-110.70509
"Southern power trip","Upper Falls > Memorial Falls > Northwest Region > Montana",https://www.mountainproject.com/route/113389976/southern-power-trip,3.0,-1,Boulder,V7,1,12,46.91478,-110.69328
"Line of Weakness","Upper Falls > Memorial Falls > Northwest Region > Montana",https://www.mountainproject.com/route/113224135/line-of-weakness,3.0,-1,Boulder,V4,1,12,46.91478,-110.69328
"Along the Fragments of Time","House of Leaves Boulder > Madison River Area > Southwest Region > Montana",https://www.mountainproject.com/route/110289361/along-the-fragments-of-time,3.0,-1,Boulder,V3-4,1,,45.59327,-111.57221
"Shandy Town","The Pocket > District Two (The Meadow) > Hidden Lakes > Big Sky Area > Southwest Region > Montana",https://www.mountainproject.com/route/113527241/shandy-town,3.0,-1,Boulder,V8-9,1,,45.2623,-111.1645
"Pink Lady","Hollow Earth Boulder > District Two (The Meadow) > Hidden Lakes > Big Sky Area > Southwest Region > Montana",https://www.mountainproject.com/route/113524334/pink-lady,3.0,-1,Boulder,V5,1,,45.26247,-111.16439
"Canyon Clinger","Gorilla Block > Sagebrush Point Boulders > Greek Creek and Surroundings > Big Sky Area > Southwest Region > Montana",https://www.mountainproject.com/route/110340929/canyon-clinger,3.0,-1,Boulder,V4+,1,12,45.39089,-111.1993
"Force Jump","Upper Nunnery > The Nunnery > West Side > Gallatin Canyon > Southwest Region > Montana",https://www.mountainproject.com/route/110812590/force-jump,3.0,-1,Boulder,V7,1,,45.41259,-111.23623
Peaches,"Peaches Boulder > SOS Area > Cascade Creek > West Side > Gallatin Canyon > Southwest Region > Montana",https://www.mountainproject.com/route/117686399/peaches,3.0,-1,"Boulder, Alpine",V3,1,12,45.39207,-111.23853
"Tall and Dirty","Upper Falls > Memorial Falls > Northwest Region > Montana",https://www.mountainproject.com/route/113224567/tall-and-dirty,3.0,-1,Boulder,V1,1,15,46.91478,-110.69328
"Sconnie Route","Sconnie Boulder > Mile 13 Boulders > Paradise Valley > Southwest Region > Montana",https://www.mountainproject.com/route/109458867/sconnie-route,3.0,-1,Boulder,V4,1,10,45.16958,-110.85694
Homecoming,"Upper Falls > Memorial Falls > Northwest Region > Montana",https://www.mountainproject.com/route/113389953/homecoming,3.0,-1,Boulder,V5,1,12,46.91478,-110.69328
"Austin's Skyscraper","Hollow Earth Boulder > District Two (The Meadow) > Hidden Lakes > Big Sky Area > Southwest Region > Montana",https://www.mountainproject.com/route/113524345/austins-skyscraper,3.0,-1,Boulder,V1,1,,45.26247,-111.16439
"Way Out","Locomotive Boulders > Yankee Jim > Paradise Valley > Southwest Region > Montana",https://www.mountainproject.com/route/112011018/way-out,3.0,-1,Boulder,V8,1,,45.05987,-110.78916
"power plant","The atrium > Wolf Butte > Northwest Region > Montana",https://www.mountainproject.com/route/112568642/power-plant,3.0,-1,Boulder,V4,1,15,47.13787,-110.49875
"The Green Bastard","The Green Slab > District Two (The Meadow) > Hidden Lakes > Big Sky Area > Southwest Region > Montana",https://www.mountainproject.com/route/113530280/the-green-bastard,3.0,-1,Boulder,V2,1,25,45.26215,-111.16417
"Bones to the Wall","The grave yard > Wolf Butte > Northwest Region > Montana",https://www.mountainproject.com/route/112870068/bones-to-the-wall,3.0,-1,Boulder,V1-2,1,14,47.13342,-110.49331
"Vertical Tangerine","The Tangerine > District Three (The Drainage) > Hidden Lakes > Big Sky Area > Southwest Region > Montana",https://www.mountainproject.com/route/113535402/vertical-tangerine,3.0,-1,"Boulder, Alpine",V3,1,14,45.26091,-111.16642
"Hungry Eyes","Creekside Boulder > Explosive Area > Cascade Creek > West Side > Gallatin Canyon > Southwest Region > Montana",https://www.mountainproject.com/route/117745277/hungry-eyes,3.0,-1,"Boulder, Alpine",V2,1,12,45.39079,-111.23958
"Pineapple Peach Booch for the Boys","Indian Summer Boulder > District Two (The Meadow) > Hidden Lakes > Big Sky Area > Southwest Region > Montana",https://www.mountainproject.com/route/113524109/pineapple-peach-booch-for-the-boys,3.0,-1,Boulder,V3,1,,45.26237,-111.1643
"Circle of Life","The grave yard > Wolf Butte > Northwest Region > Montana",https://www.mountainproject.com/route/112870658/circle-of-life,3.0,-1,Boulder,V2,1,26,47.13342,-110.49331
"The Giving Tree","The Tangerine > District Three (The Drainage) > Hidden Lakes > Big Sky Area > Southwest Region > Montana",https://www.mountainproject.com/route/113535409/the-giving-tree,3.0,-1,"Boulder, Alpine",V0,1,14,45.26091,-111.16642
"Homeless and Thriving","Homeless Boulder > District Two (The Meadow) > Hidden Lakes > Big Sky Area > Southwest Region > Montana",https://www.mountainproject.com/route/113527029/homeless-and-thriving,3.0,-1,Boulder,V4,1,,45.26248,-111.16463
Reckoner,"Moon Boulder > District Two (The Meadow) > Hidden Lakes > Big Sky Area > Southwest Region > Montana",https://www.mountainproject.com/route/113524004/reckoner,3.0,-1,Boulder,V5-6,1,,45.26236,-111.16363
Undertow,"The grave yard > Wolf Butte > Northwest Region > Montana",https://www.mountainproject.com/route/112870151/undertow,3.0,-1,Boulder,V2,1,12,47.13342,-110.49331
"Middle Child Syndrome","Sconnie Boulder > Mile 13 Boulders > Paradise Valley > Southwest Region > Montana",https://www.mountainproject.com/route/109700505/middle-child-syndrome,3.0,-1,Boulder,V3,1,8,45.16958,-110.85694
"Just a little prick","The atrium > Wolf Butte > Northwest Region > Montana",https://www.mountainproject.com/route/112568589/just-a-little-prick,3.0,-1,Boulder,V3,1,12,47.13787,-110.49875
"G.I. Ben","Buffy Boulder > Warm Up Ridge Area > Whiskey Proper > Whiskey Gulch > Southwest Region > Montana",https://www.mountainproject.com/route/112269467/gi-ben,3.0,-1,Boulder,V0,1,10,45.88386,-112.30809
"Slope N Slide","Road Slide Boulders > Sagebrush Point Boulders > Greek Creek and Surroundings > Big Sky Area > Southwest Region > Montana",https://www.mountainproject.com/route/109577987/slope-n-slide,3.0,-1,Boulder,V4,1,12,45.39085,-111.20029
"Storm the Castle","Upper Nunnery > The Nunnery > West Side > Gallatin Canyon > Southwest Region > Montana",https://www.mountainproject.com/route/110859856/storm-the-castle,3.0,-1,Boulder,V2-3,1,,45.41259,-111.23623
"Peter's Arete","Upper Nunnery > The Nunnery > West Side > Gallatin Canyon > Southwest Region > Montana",https://www.mountainproject.com/route/110859970/peters-arete,3.0,-1,Boulder,V3,1,,45.41259,-111.23623
"Peter's Thing","Upper Nunnery > The Nunnery > West Side > Gallatin Canyon > Southwest Region > Montana",https://www.mountainproject.com/route/110860006/peters-thing,3.0,-1,Boulder,V4-5,1,,45.41259,-111.23623
"Stoned Monkey","Big Sky Grit > Sagebrush Point Boulders > Greek Creek and Surroundings > Big Sky Area > Southwest Region > Montana",https://www.mountainproject.com/route/110215567/stoned-monkey,3.0,-1,Boulder,V2,1,12,45.05998,-111.18899
"Yellow Submarine","Upper Nunnery > The Nunnery > West Side > Gallatin Canyon > Southwest Region > Montana",https://www.mountainproject.com/route/111969998/yellow-submarine,3.0,-1,Boulder,V3,1,,45.41259,-111.23623
"Doctor Clean","Sweet Tip > Mile 13 Boulders > Paradise Valley > Southwest Region > Montana",https://www.mountainproject.com/route/111867681/doctor-clean,3.0,-1,Boulder,V3,1,10,45.17019,-110.85694
"Early Bird","Early Bird > Mile 13 Boulders > Paradise Valley > Southwest Region > Montana",https://www.mountainproject.com/route/110755749/early-bird,3.0,-1,Boulder,"V1 PG13",1,15,45.16995,-110.85728
"Aristotle's Arete","Ballers Club Boulders > Sagebrush Point Boulders > Greek Creek and Surroundings > Big Sky Area > Southwest Region > Montana",https://www.mountainproject.com/route/109600722/aristotles-arete,3.0,-1,Boulder,V3-,1,14,45.39085,-111.20029
"Dude Where's My Crimp","Crows Nest > Sagebrush Point Boulders > Greek Creek and Surroundings > Big Sky Area > Southwest Region > Montana",https://www.mountainproject.com/route/109657516/dude-wheres-my-crimp,3.0,-1,Boulder,V4,1,14,45.39085,-111.20029
"Ultimate Cave Dweller","Crows Nest > Sagebrush Point Boulders > Greek Creek and Surroundings > Big Sky Area > Southwest Region > Montana",https://www.mountainproject.com/route/111188202/ultimate-cave-dweller,3.0,-1,Boulder,V4-5,1,15,45.39085,-111.20029
"Where's Your Crimp Dude","Crows Nest > Sagebrush Point Boulders > Greek Creek and Surroundings > Big Sky Area > Southwest Region > Montana",https://www.mountainproject.com/route/111280438/wheres-your-crimp-dude,3.0,-1,Boulder,V4,1,14,45.39085,-111.20029
"Go Pack Go","Go Pack Go > Mile 13 Boulders > Paradise Valley > Southwest Region > Montana",https://www.mountainproject.com/route/109458845/go-pack-go,3.0,-1,Boulder,V3-,1,8,45.16958,-110.8566
"Ain't No Stairway","Rooftop Access > Sagebrush Point Boulders > Greek Creek and Surroundings > Big Sky Area > Southwest Region > Montana",https://www.mountainproject.com/route/109348203/aint-no-stairway,3.0,-1,Boulder,V2+,1,12,45.39085,-111.20029
"Monkey Swing Sit","Gorilla Block > Sagebrush Point Boulders > Greek Creek and Surroundings > Big Sky Area > Southwest Region > Montana",https://www.mountainproject.com/route/109244877/monkey-swing-sit,3.0,-1,Boulder,V3,1,10,45.39089,-111.1993
"Proper Aretequette Required","Gorilla Block > Sagebrush Point Boulders > Greek Creek and Surroundings > Big Sky Area > Southwest Region > Montana",https://www.mountainproject.com/route/110341144/proper-aretequette-required,3.0,-1,Boulder,V2+,1,8,45.39089,-111.1993
"Sweet Lip","Sweet Tip > Mile 13 Boulders > Paradise Valley > Southwest Region > Montana",https://www.mountainproject.com/route/109457481/sweet-lip,3.0,-1,Boulder,V3-,1,10,45.17019,-110.85694
"Flakey Goodness","Big Sky Grit > Sagebrush Point Boulders > Greek Creek and Surroundings > Big Sky Area > Southwest Region > Montana",https://www.mountainproject.com/route/110219710/flakey-goodness,3.0,-1,Boulder,V1,1,12,45.05998,-111.18899
Man-O-Whar,"Wave Wall > Sagebrush Point Boulders > Greek Creek and Surroundings > Big Sky Area > Southwest Region > Montana",https://www.mountainproject.com/route/110357231/man-o-whar,3.0,-1,Boulder,V2+,1,12,45.39085,-111.20029
"River Boulder","River Boulder > Mile 13 Boulders > Paradise Valley > Southwest Region > Montana",https://www.mountainproject.com/route/109709499/river-boulder,3.0,-1,Boulder,"V2 PG13",1,10,45.16995,-110.85694
"Crappie Flop","Refrigerator Block > Sagebrush Point Boulders > Greek Creek and Surroundings > Big Sky Area > Southwest Region > Montana",https://www.mountainproject.com/route/109331210/crappie-flop,3.0,-1,Boulder,V3-4,1,8,45.39085,-111.20029
Wunderbar,"Crows Nest > Sagebrush Point Boulders > Greek Creek and Surroundings > Big Sky Area > Southwest Region > Montana",https://www.mountainproject.com/route/109628058/wunderbar,3.0,-1,Boulder,V2+,1,20,45.39085,-111.20029
Snarf,"Thunder Boulders > Campground Boulders > Yankee Jim > Paradise Valley > Southwest Region > Montana",https://www.mountainproject.com/route/118012215/snarf,3.0,-1,Boulder,V4,1,10,45.18392,-110.88895
"The Crystal Methodology","Double Prow Boulder > Pull Out Area > Neat Rock Bouldering > Neat Rock Area > Madison River Area > Southwest Region > Montana",https://www.mountainproject.com/route/117948199/the-crystal-methodology,3.0,-1,Boulder,V5-6,1,10,45.63631,-111.5405
Beltar,"Cone Head Boulder > Hidden Area > Whiskey Proper > Whiskey Gulch > Southwest Region > Montana",https://www.mountainproject.com/route/112269277/beltar,2.8,-1,Boulder,V1,1,15,45.88323,-112.3075
"Lava Lunge","Lava Pit > Cascade Creek > West Side > Gallatin Canyon > Southwest Region > Montana",https://www.mountainproject.com/route/107809733/lava-lunge,2.8,-1,"Boulder, Alpine",V3,1,,45.39144,-111.23927
"Moves Like Paul Bunyan","Gorilla Block > Sagebrush Point Boulders > Greek Creek and Surroundings > Big Sky Area > Southwest Region > Montana",https://www.mountainproject.com/route/109348148/moves-like-paul-bunyan,2.8,-1,Boulder,V1+,1,12,45.39089,-111.1993
"Lava Lunge Traverse","Lava Pit > Cascade Creek > West Side > Gallatin Canyon > Southwest Region > Montana",https://www.mountainproject.com/route/107809860/lava-lunge-traverse,2.7,-1,"Boulder, Alpine",V4,1,,45.39144,-111.23927
"Overhangatang Left","Overhangatang Boulders > Hyalite Canyon > Southwest Region > Montana",https://www.mountainproject.com/route/117247572/overhangatang-left,2.7,-1,Boulder,V5,1,12,45.54518,-111.04371
"Neat Right","Neat Boulder > Neat Rock Bouldering > Neat Rock Area > Madison River Area > Southwest Region > Montana",https://www.mountainproject.com/route/115434340/neat-right,2.7,-1,Boulder,V3,1,9,45.63263,-111.54306
"Neat Right Sit Start","Neat Boulder > Neat Rock Bouldering > Neat Rock Area > Madison River Area > Southwest Region > Montana",https://www.mountainproject.com/route/115434377/neat-right-sit-start,2.7,-1,Boulder,V4,1,10,45.63263,-111.54306
"Warm Up Center","Warm Up Boulder > Flying Buttress Boulders > Bear Trap Road Boulders > Madison River Area > Southwest Region > Montana",https://www.mountainproject.com/route/116174556/warm-up-center,2.7,-1,Boulder,V0,1,15,45.58764,-111.57676
"Zulu Death Mask","Super Rad Boulder > Mother Lode Boulders > Lost Horse > Northwest Region > Montana",https://www.mountainproject.com/route/113912265/zulu-death-mask,2.5,-1,Boulder,V5,1,14,46.09677,-114.25546
"Dr. Bush","Bush Boulder > Flying Buttress Boulders > Bear Trap Road Boulders > Madison River Area > Southwest Region > Montana",https://www.mountainproject.com/route/111574651/dr-bush,2.4,-1,Boulder,V6,1,,45.58771,-111.57678
"Boys At Work","Men At Work Boulder > Flying Buttress Boulders > Bear Trap Road Boulders > Madison River Area > Southwest Region > Montana",https://www.mountainproject.com/route/111574665/boys-at-work,2.4,-1,Boulder,V3,1,,45.58775,-111.57666
Z-Face,"Z-Crack Boulder > Flying Buttress Boulders > Bear Trap Road Boulders > Madison River Area > Southwest Region > Montana",https://www.mountainproject.com/route/116174622/z-face,2.5,-1,Boulder,V1,1,10,45.5879,-111.57671
"Glory Hole","Bad Rock Canyon > Northwest Region > Montana",https://www.mountainproject.com/route/113703553/glory-hole,2.5,-1,Boulder,V0,1,16,48.38554,-114.10253
"Center Line","Center Line Boulder > Flying Buttress Boulders > Bear Trap Road Boulders > Madison River Area > Southwest Region > Montana",https://www.mountainproject.com/route/111578244/center-line,2.5,-1,Boulder,V4,1,,45.58776,-111.57663
Ninja,"Mile 18 > South Central Region > Montana",https://www.mountainproject.com/route/112114464/ninja,2.5,-1,Boulder,V8,1,,45.32767,-110.23044
"Battle of Hoth Left","Upper Nunnery > The Nunnery > West Side > Gallatin Canyon > Southwest Region > Montana",https://www.mountainproject.com/route/110812595/battle-of-hoth-left,2.5,-1,Boulder,V4,1,,45.41259,-111.23623
"Beach Crack","The Beach > Yankee Jim > Paradise Valley > Southwest Region > Montana",https://www.mountainproject.com/route/111674745/beach-crack,2.5,-1,Boulder,V1,1,,45.17087,-110.86994
"The Mangler","The Beach > Yankee Jim > Paradise Valley > Southwest Region > Montana",https://www.mountainproject.com/route/111674737/the-mangler,2.5,-1,Boulder,V3,1,,45.17087,-110.86994
"Triple D","Lower Nunnery > The Nunnery > West Side > Gallatin Canyon > Southwest Region > Montana",https://www.mountainproject.com/route/111136979/triple-d,2.5,-1,Boulder,"V2 PG13",1,15,45.41369,-111.23123
"Shadow Cruiser","Upper Nunnery > The Nunnery > West Side > Gallatin Canyon > Southwest Region > Montana",https://www.mountainproject.com/route/110860016/shadow-cruiser,2.5,-1,Boulder,V3,1,,45.41259,-111.23623
Bon,"Senile Boulder > Senile Gully > Whiskey Proper > Whiskey Gulch > Southwest Region > Montana",https://www.mountainproject.com/route/112269205/bon,2.5,-1,Boulder,V0,1,10,45.88396,-112.30617
Elasticling,"Sweet Tip > Mile 13 Boulders > Paradise Valley > Southwest Region > Montana",https://www.mountainproject.com/route/109458707/elasticling,2.5,-1,Boulder,V2,1,10,45.17019,-110.85694
"Magma Man","Lava Pit > Cascade Creek > West Side > Gallatin Canyon > Southwest Region > Montana",https://www.mountainproject.com/route/107809923/magma-man,2.5,-1,"Boulder, Alpine",V7,1,,45.39144,-111.23927
"Feed My Frankenstein","Tyler's Problem Boulder > Cascade Creek > West Side > Gallatin Canyon > Southwest Region > Montana",https://www.mountainproject.com/route/107812191/feed-my-frankenstein,2.5,-1,"Boulder, Alpine",V6,1,,45.3913,-111.239
"Build Your Own Escape","Carpenter Boulder > Cascade Creek > West Side > Gallatin Canyon > Southwest Region > Montana",https://www.mountainproject.com/route/107812366/build-your-own-escape,2.5,-1,"Boulder, Alpine",V7,1,,45.3913,-111.239
"Baby Bear","Family Wall > Entrance Gully > Whiskey Proper > Whiskey Gulch > Southwest Region > Montana",https://www.mountainproject.com/route/112269132/baby-bear,2.3,-1,Boulder,V2,1,12,45.88439,-112.30626
"Banana Peel","Gorilla Block > Sagebrush Point Boulders > Greek Creek and Surroundings > Big Sky Area > Southwest Region > Montana",https://www.mountainproject.com/route/109244634/banana-peel,2.3,-1,Boulder,V3-4,1,10,45.39089,-111.1993
"Rapid Crimp","Whitewater Wall > Sagebrush Point Boulders > Greek Creek and Surroundings > Big Sky Area > Southwest Region > Montana",https://www.mountainproject.com/route/109244497/rapid-crimp,2.3,-1,Boulder,V2-,1,10,45.3907,-111.20063
"The Hobbits Heel Hook","Lower Nunnery > The Nunnery > West Side > Gallatin Canyon > Southwest Region > Montana",https://www.mountainproject.com/route/111187965/the-hobbits-heel-hook,2.3,-1,Boulder,V3,1,12,45.41369,-111.23123
"The Rubber Necker","Lower Nunnery > The Nunnery > West Side > Gallatin Canyon > Southwest Region > Montana",https://www.mountainproject.com/route/110790639/the-rubber-necker,2.0,-1,Boulder,V3,1,,45.41369,-111.23123
"Orange Dream Chossicle","Uzumaki Boulder > District One > Hidden Lakes > Big Sky Area > Southwest Region > Montana",https://www.mountainproject.com/route/113523155/orange-dream-chossicle,2.0,-1,Boulder,V2,1,,45.26245,-111.16111
"Warm Up Left","Warm Up Boulder > Flying Buttress Boulders > Bear Trap Road Boulders > Madison River Area > Southwest Region > Montana",https://www.mountainproject.com/route/116174576/warm-up-left,2.0,-1,Boulder,V1,1,10,45.58764,-111.57676
"Men on the Moon","Cone Head Boulder > Hidden Area > Whiskey Proper > Whiskey Gulch > Southwest Region > Montana",https://www.mountainproject.com/route/112269304/men-on-the-moon,2.0,-1,Boulder,V0,1,15,45.88323,-112.3075
Sandcrawler,"Upper Nunnery > The Nunnery > West Side > Gallatin Canyon > Southwest Region > Montana",https://www.mountainproject.com/route/110812585/sandcrawler,2.0,-1,Boulder,V4,1,,45.41259,-111.23623
"Monkey Knife Fight","Lava Pit > Cascade Creek > West Side > Gallatin Canyon > Southwest Region > Montana",https://www.mountainproject.com/route/107809883/monkey-knife-fight,2.0,-1,"Boulder, Alpine",V9,1,,45.39144,-111.23927
"Mr. Delicate","Pterodunktyl Boulder(s) > Cascade Creek > West Side > Gallatin Canyon > Southwest Region > Montana",https://www.mountainproject.com/route/117593151/mr-delicate,2.0,-1,"Boulder, Alpine",V7-,1,15,45.38951,-111.23455
"Big Shooter","Moonshine Boulder > New World Gulch Bouldering > Bear Canyon > Southwest Region > Montana",https://www.mountainproject.com/route/115337439/big-shooter,2.0,-1,Boulder,V2+,1,8,45.59779,-110.93559
"Hole to Hole","Swamp Rock > Hyalite Canyon > Southwest Region > Montana",https://www.mountainproject.com/route/117570051/hole-to-hole,2.0,-1,Boulder,V5-6,1,,45.50767,-110.99518
Mon,"Roadside Boulder > Diamond & Roadside Area > Bear Trap Road Boulders > Madison River Area > Southwest Region > Montana",https://www.mountainproject.com/route/115687298/mon,2.0,-1,Boulder,V3,1,8,45.59328,-111.56889
"Choke Cherry","Roadside Boulder > Diamond & Roadside Area > Bear Trap Road Boulders > Madison River Area > Southwest Region > Montana",https://www.mountainproject.com/route/115687213/choke-cherry,2.0,-1,Boulder,V1,1,15,45.59328,-111.56889
"Bear Face","Pterodunktyl Boulder(s) > Cascade Creek > West Side > Gallatin Canyon > Southwest Region > Montana",https://www.mountainproject.com/route/117593165/bear-face,2.0,-1,"Boulder, Alpine",V2,1,40,45.38951,-111.23455
Gunshy,"Locomotive Boulders > Yankee Jim > Paradise Valley > Southwest Region > Montana",https://www.mountainproject.com/route/113595639/gunshy,2.0,-1,Boulder,V2,1,10,45.05987,-110.78916
"Peter's Bulge","Locomotive Boulders > Yankee Jim > Paradise Valley > Southwest Region > Montana",https://www.mountainproject.com/route/110933785/peters-bulge,2.0,-1,Boulder,V4,1,,45.05987,-110.78916
"Family Values","Upper Falls > Memorial Falls > Northwest Region > Montana",https://www.mountainproject.com/route/113224092/family-values,2.0,-1,Boulder,V3,1,12,46.91478,-110.69328
Undercarriage,"Locomotive Boulders > Yankee Jim > Paradise Valley > Southwest Region > Montana",https://www.mountainproject.com/route/110933797/undercarriage,2.0,-1,Boulder,V5,1,,45.05987,-110.78916
"Yo Quiero","Tres Amigos > Warm Up Ridge Area > Whiskey Proper > Whiskey Gulch > Southwest Region > Montana",https://www.mountainproject.com/route/112269438/yo-quiero,2.0,-1,Boulder,V0,1,18,45.88384,-112.30782
"Pad Surfer","Lower Nunnery > The Nunnery > West Side > Gallatin Canyon > Southwest Region > Montana",https://www.mountainproject.com/route/110792930/pad-surfer,2.0,-1,Boulder,V4,1,,45.41369,-111.23123
"Once Around The Block","Gorilla Block > Sagebrush Point Boulders > Greek Creek and Surroundings > Big Sky Area > Southwest Region > Montana",https://www.mountainproject.com/route/109244863/once-around-the-block,2.0,-1,Boulder,V2+,1,20,45.39089,-111.1993
"Size Doesn't Matter","Foily Boulder > Mile 13 Boulders > Paradise Valley > Southwest Region > Montana",https://www.mountainproject.com/route/109460873/size-doesnt-matter,2.0,-1,Boulder,V2,1,,45.16983,-110.85677
"Short Stab","Foily Boulder > Mile 13 Boulders > Paradise Valley > Southwest Region > Montana",https://www.mountainproject.com/route/109700683/short-stab,2.0,-1,Boulder,V2,1,6,45.16983,-110.85677
Foily,"Foily Boulder > Mile 13 Boulders > Paradise Valley > Southwest Region > Montana",https://www.mountainproject.com/route/109458822/foily,2.0,-1,Boulder,V1,1,6,45.16983,-110.85677
"Grounded in Growth","Sweet Tip > Mile 13 Boulders > Paradise Valley > Southwest Region > Montana",https://www.mountainproject.com/route/109458674/grounded-in-growth,2.0,-1,Boulder,V2,1,10,45.17019,-110.85694
"Dynamite SDS","Explosive Boulder > Explosive Area > Cascade Creek > West Side > Gallatin Canyon > Southwest Region > Montana",https://www.mountainproject.com/route/107810022/dynamite-sds,2.0,-1,"Boulder, Alpine",V8-,1,,45.3913,-111.239
Dynamite,"Explosive Boulder > Explosive Area > Cascade Creek > West Side > Gallatin Canyon > Southwest Region > Montana",https://www.mountainproject.com/route/107809999/dynamite,2.0,-1,"Boulder, Alpine",V2-3,1,,45.3913,-111.239
Pythagoras,"The Gargoyle Boulder > Cascade Creek > West Side > Gallatin Canyon > Southwest Region > Montana",https://www.mountainproject.com/route/108204911/pythagoras,2.0,-1,"Boulder, Alpine",V3,1,,45.39017,-111.23792
"Wind Weaver","Wind Boulder > Neat Rock Bouldering > Neat Rock Area > Madison River Area > Southwest Region > Montana",https://www.mountainproject.com/route/116644187/wind-weaver,2.0,-1,Boulder,V4,1,10,45.63352,-111.54681
Termighty,"Riverside Retreat > Stormcastle > Gallatin Canyon > Southwest Region > Montana",https://www.mountainproject.com/route/116959803/termighty,2.0,-1,Boulder,V4,1,16,45.41566,-111.23125
"Dirty Thirty","Overhangatang Boulders > Hyalite Canyon > Southwest Region > Montana",https://www.mountainproject.com/route/113713091/dirty-thirty,2.0,-1,Boulder,V3,1,,45.54518,-111.04371
"Ice Dragon","Ice Dragon Cave > Neat Rock Bouldering > Neat Rock Area > Madison River Area > Southwest Region > Montana",https://www.mountainproject.com/route/116174760/ice-dragon,2.0,-1,Boulder,V5,1,25,45.63392,-111.54559
Sidewinder,"Holland Falls > Northwest Region > Montana",https://www.mountainproject.com/route/115136624/sidewinder,2.0,-1,Boulder,V3-,1,11,47.45105,-113.57538
"Short Days and Nasty Nights","Bear Trap Boulder > Bear Trap Road Boulders > Madison River Area > Southwest Region > Montana",https://www.mountainproject.com/route/116174165/short-days-and-nasty-nights,2.0,-1,Boulder,V4,1,10,45.57564,-111.59404
Venom,"Spider Boulder > Campground Boulders > Yankee Jim > Paradise Valley > Southwest Region > Montana",https://www.mountainproject.com/route/117017755/venom,2.0,-1,Boulder,V0,1,15,45.18427,-110.89094
"Lil' Dude","Lil' Dude > Soul Kitchen > End of the Road > Whiskey Gulch > Southwest Region > Montana",https://www.mountainproject.com/route/117066503/lil-dude,2.0,-1,Boulder,V1,1,8,45.88094,-112.29755
"The Scourge of the Bin Men","The Dumpster Boulder > Soul Kitchen > End of the Road > Whiskey Gulch > Southwest Region > Montana",https://www.mountainproject.com/route/117066434/the-scourge-of-the-bin-men,2.0,-1,Boulder,V2,1,8,45.88091,-112.29759
"Hatch Fest","Bear Trap Boulder > Bear Trap Road Boulders > Madison River Area > Southwest Region > Montana",https://www.mountainproject.com/route/116174119/hatch-fest,2.0,-1,Boulder,V1-,1,10,45.57564,-111.59404
"Scruffy Looking Nerf Herder","Full Sun Boulder > Neat Rock Bouldering > Neat Rock Area > Madison River Area > Southwest Region > Montana",https://www.mountainproject.com/route/115563037/scruffy-looking-nerf-herder,2.0,-1,Boulder,V2,1,10,45.63309,-111.54606
"Bozo's Porno Circus","Circus Boulder > Campground Boulders > Yankee Jim > Paradise Valley > Southwest Region > Montana",https://www.mountainproject.com/route/117018285/bozos-porno-circus,2.0,-1,Boulder,V0,1,10,45.18256,-110.88717
Booger,"Booger Boulder > Campground Boulders > Yankee Jim > Paradise Valley > Southwest Region > Montana",https://www.mountainproject.com/route/117018057/booger,2.0,-1,Boulder,V0,1,10,45.18207,-110.88574
"Eve, The Mother of Cain","Genesis Boulder > Campground Boulders > Yankee Jim > Paradise Valley > Southwest Region > Montana",https://www.mountainproject.com/route/117018390/eve-the-mother-of-cain,2.0,-1,Boulder,V1,1,10,45.18214,-110.88724
"Chill Wind","Wind Boulder > Neat Rock Bouldering > Neat Rock Area > Madison River Area > Southwest Region > Montana",https://www.mountainproject.com/route/116098159/chill-wind,2.0,-1,Boulder,V2,1,8,45.63352,-111.54681
"Pebble Wrangler","Pebble Boulder > Campground Boulders > Yankee Jim > Paradise Valley > Southwest Region > Montana",https://www.mountainproject.com/route/117018336/pebble-wrangler,2.0,-1,Boulder,V1,1,8,45.18195,-110.88719
"Waiting Room","Waiting Boulder > Campground Boulders > Yankee Jim > Paradise Valley > Southwest Region > Montana",https://www.mountainproject.com/route/117018165/waiting-room,2.0,-1,Boulder,V1+,1,15,45.18233,-110.88728
"Just Put Your Fingers In It","Butter Boulder > Campground Boulders > Yankee Jim > Paradise Valley > Southwest Region > Montana",https://www.mountainproject.com/route/117017923/just-put-your-fingers-in-it,2.0,-1,Boulder,V1,1,15,45.18245,-110.88634
"Easy Like Joe's Mom","Joe's Mom Boulder > Campground Boulders > Yankee Jim > Paradise Valley > Southwest Region > Montana",https://www.mountainproject.com/route/117017834/easy-like-joes-mom,2.0,-1,Boulder,V1+,1,10,45.18235,-110.88638
"Full Sun Left","Full Sun Boulder > Neat Rock Bouldering > Neat Rock Area > Madison River Area > Southwest Region > Montana",https://www.mountainproject.com/route/116174715/full-sun-left,2.0,-1,Boulder,"V2 PG13",1,18,45.63309,-111.54606
"B.T. Downclimb","Bear Trap Boulder > Bear Trap Road Boulders > Madison River Area > Southwest Region > Montana",https://www.mountainproject.com/route/116174103/bt-downclimb,2.0,-1,Boulder,V0-,1,10,45.57564,-111.59404
"Leapin' Llamas","Booger Boulder > Campground Boulders > Yankee Jim > Paradise Valley > Southwest Region > Montana",https://www.mountainproject.com/route/117018015/leapin-llamas,2.0,-1,Boulder,V1,1,10,45.18207,-110.88574
Surely,"The Corridor Boulder > Sudden Valley > End of the Road > Whiskey Gulch > Southwest Region > Montana",https://www.mountainproject.com/route/117066325/surely,2.0,-1,Boulder,V0,1,10,45.88087,-112.2984
"Diet Spite","Bad Rock Canyon > Northwest Region > Montana",https://www.mountainproject.com/route/113703519/diet-spite,2.0,-1,Boulder,V3,1,,48.38554,-114.10253
"Tigah Style","Upper Sagebrush > Sagebrush Point Boulders > Greek Creek and Surroundings > Big Sky Area > Southwest Region > Montana",https://www.mountainproject.com/route/117861874/tigah-style,2.0,-1,Boulder,V2+,1,10,45.39157,-111.19842
Ascension,"Bad Rock Canyon > Northwest Region > Montana",https://www.mountainproject.com/route/113703562/ascension,2.0,-1,Boulder,"V1 PG13",1,18,48.38554,-114.10253
Silverback,"Overhangatang Boulders > Hyalite Canyon > Southwest Region > Montana",https://www.mountainproject.com/route/117247498/silverback,2.0,-1,Boulder,V7,1,,45.54518,-111.04371
"Vert Thing","Project Boulder > Neat Rock Bouldering > Neat Rock Area > Madison River Area > Southwest Region > Montana",https://www.mountainproject.com/route/116174801/vert-thing,2.0,-1,Boulder,V1,1,8,45.63353,-111.54612
"Human Sacrifice","Aztec Boulder > Neat Rock Bouldering > Neat Rock Area > Madison River Area > Southwest Region > Montana",https://www.mountainproject.com/route/116174729/human-sacrifice,2.0,-1,Boulder,V1,1,8,45.63309,-111.54612
"Mostly Shade","Full Sun Boulder > Neat Rock Bouldering > Neat Rock Area > Madison River Area > Southwest Region > Montana",https://www.mountainproject.com/route/115563010/mostly-shade,2.0,-1,Boulder,V1,1,8,45.63309,-111.54606
"Wind of Change","Wind Boulder > Neat Rock Bouldering > Neat Rock Area > Madison River Area > Southwest Region > Montana",https://www.mountainproject.com/route/115434575/wind-of-change,2.0,-1,Boulder,V0,1,10,45.63352,-111.54681
"Jaguar Warrior","Aztec Boulder > Neat Rock Bouldering > Neat Rock Area > Madison River Area > Southwest Region > Montana",https://www.mountainproject.com/route/115563085/jaguar-warrior,2.0,-1,Boulder,V2,1,12,45.63309,-111.54612
"Against the Wind","Wind Boulder > Neat Rock Bouldering > Neat Rock Area > Madison River Area > Southwest Region > Montana",https://www.mountainproject.com/route/115434544/against-the-wind,2.0,-1,Boulder,V1+,1,10,45.63352,-111.54681
"Pocket Change","Bad Rock Canyon > Northwest Region > Montana",https://www.mountainproject.com/route/113703492/pocket-change,2.0,-1,Boulder,V0-1,1,,48.38554,-114.10253
Lassie,"The Lost Dog Boulder > Lava Lake > West Side > Gallatin Canyon > Southwest Region > Montana",https://www.mountainproject.com/route/117822009/lassie,2.0,-1,"Boulder, Alpine",V2,1,10,45.37949,-111.24421
"Blowin' in the Wind","Wind Boulder > Neat Rock Bouldering > Neat Rock Area > Madison River Area > Southwest Region > Montana",https://www.mountainproject.com/route/115434560/blowin-in-the-wind,2.0,-1,Boulder,V1,1,10,45.63352,-111.54681
"On the Verge","Upper Sagebrush > Sagebrush Point Boulders > Greek Creek and Surroundings > Big Sky Area > Southwest Region > Montana",https://www.mountainproject.com/route/117861857/on-the-verge,2.0,-1,Boulder,V1,1,8,45.39157,-111.19842
"Harmony as a Super Saiyan","Locomotive Boulders > Yankee Jim > Paradise Valley > Southwest Region > Montana",https://www.mountainproject.com/route/111781095/harmony-as-a-super-saiyan,2.0,-1,Boulder,V11,1,,45.05987,-110.78916
"Young Jedi","The Force Boulder > The Force Area > Whiskey Proper > Whiskey Gulch > Southwest Region > Montana",https://www.mountainproject.com/route/115448436/young-jedi,2.0,-1,Boulder,V2-,1,8,45.88372,-112.30508
"Alley Cat","Holland Falls > Northwest Region > Montana",https://www.mountainproject.com/route/113642757/alley-cat,2.0,-1,Boulder,V2,1,12,47.45105,-113.57538
Lockdown,"Upper Sagebrush > Sagebrush Point Boulders > Greek Creek and Surroundings > Big Sky Area > Southwest Region > Montana",https://www.mountainproject.com/route/117863826/lockdown,2.0,-1,Boulder,V3+,1,12,45.39157,-111.19842
"Basic Math","Lower Nunnery > The Nunnery > West Side > Gallatin Canyon > Southwest Region > Montana",https://www.mountainproject.com/route/117800798/basic-math,2.0,-1,Boulder,V2,1,10,45.41369,-111.23123
"The Diving Board","Bad Rock Canyon > Northwest Region > Montana",https://www.mountainproject.com/route/113703547/the-diving-board,2.0,-1,Boulder,V2-,1,10,48.38554,-114.10253
"Ol Yeller","The Lost Dog Boulder > Lava Lake > West Side > Gallatin Canyon > Southwest Region > Montana",https://www.mountainproject.com/route/117358057/ol-yeller,2.0,-1,"Boulder, Alpine",V2-,1,15,45.37949,-111.24421
"Prime Real Estate","Riverside Retreat > Stormcastle > Gallatin Canyon > Southwest Region > Montana",https://www.mountainproject.com/route/113679205/prime-real-estate,2.0,-1,Boulder,V1,1,10,45.41566,-111.23125
"Just Can't Get Enough","Entrance Boulder > SOS Area > Cascade Creek > West Side > Gallatin Canyon > Southwest Region > Montana",https://www.mountainproject.com/route/117684295/just-cant-get-enough,2.0,-1,"Boulder, Alpine",V2+,1,12,45.39185,-111.23932
"Layback and Relax","Block Top Jr. > Lava Lake > West Side > Gallatin Canyon > Southwest Region > Montana",https://www.mountainproject.com/route/117357946/layback-and-relax,2.0,-1,"Boulder, Alpine","V1+ PG13",1,15,45.37982,-111.24419
"The Hatch","Hatch Boulder > Flying Buttress Boulders > Bear Trap Road Boulders > Madison River Area > Southwest Region > Montana",https://www.mountainproject.com/route/111878251/the-hatch,2.0,-1,Boulder,V3,1,,45.58781,-111.57672
"Send Train Direct","Bad Rock Canyon > Northwest Region > Montana",https://www.mountainproject.com/route/113703474/send-train-direct,2.0,-1,Boulder,V2-3,1,16,48.38554,-114.10253
"A Rapid Southern Traverse","Whitewater Wall > Sagebrush Point Boulders > Greek Creek and Surroundings > Big Sky Area > Southwest Region > Montana",https://www.mountainproject.com/route/117565650/a-rapid-southern-traverse,2.0,-1,Boulder,V6+,1,30,45.3907,-111.20063
"Easy Never Pleased Me","Outskirt Boulders > District Three (The Drainage) > Hidden Lakes > Big Sky Area > Southwest Region > Montana",https://www.mountainproject.com/route/114493080/easy-never-pleased-me,2.0,-1,"Boulder, Alpine",V0-1,1,10,45.26085,-111.16667
"One Foot in the Grave","The Grave Boulder > SOS Area > Cascade Creek > West Side > Gallatin Canyon > Southwest Region > Montana",https://www.mountainproject.com/route/117684375/one-foot-in-the-grave,2.0,-1,"Boulder, Alpine",V0,1,10,45.39185,-111.23928
"Don't Yank On This","Don't Yank On This Boulder > The Far East > Whiskey Proper > Whiskey Gulch > Southwest Region > Montana",https://www.mountainproject.com/route/117361408/dont-yank-on-this,2.0,-1,Boulder,V3,1,12,45.88458,-112.30501
Project,"Pinhead's Playhouse > Upper Bear Trap Canyon > Madison River Area > Southwest Region > Montana",https://www.mountainproject.com/route/113735035/project,2.0,-1,Boulder,V9+,1,15,45.46766,-111.63925
Hostile,"Vicarious Boulder > Vicarious Area > Pull Out Area > Neat Rock Bouldering > Neat Rock Area > Madison River Area > Southwest Region > Montana",https://www.mountainproject.com/route/117713953/hostile,2.0,-1,Boulder,V2,1,8,45.63409,-111.54366
Crang,"Crack a Beer Wall > District One > Hidden Lakes > Big Sky Area > Southwest Region > Montana",https://www.mountainproject.com/route/114173650/crang,2.0,-1,"Boulder, Alpine",V0-1,1,12,45.26217,-111.16105
"Knuckles Deep","Outskirt Boulders > District Three (The Drainage) > Hidden Lakes > Big Sky Area > Southwest Region > Montana",https://www.mountainproject.com/route/114498438/knuckles-deep,2.0,-1,"Boulder, Alpine",V2-3,1,12,45.26085,-111.16667
"Miss Fun Time","Outskirt Boulders > District Three (The Drainage) > Hidden Lakes > Big Sky Area > Southwest Region > Montana",https://www.mountainproject.com/route/114493126/miss-fun-time,2.0,-1,"Boulder, Alpine",V0,1,10,45.26085,-111.16667
"Rabbit Hole","Rabbit Hole Boulder > Moist Area > Neat Rock Bouldering > Neat Rock Area > Madison River Area > Southwest Region > Montana",https://www.mountainproject.com/route/117713696/rabbit-hole,2.0,-1,Boulder,V0,1,20,45.633,-111.54454
"The Cooler","Creekside Boulder > Explosive Area > Cascade Creek > West Side > Gallatin Canyon > Southwest Region > Montana",https://www.mountainproject.com/route/117745237/the-cooler,2.0,-1,"Boulder, Alpine",V1,1,10,45.39079,-111.23958
"Micro Sour Punch","Outskirt Boulders > District Three (The Drainage) > Hidden Lakes > Big Sky Area > Southwest Region > Montana",https://www.mountainproject.com/route/114498291/micro-sour-punch,2.0,-1,"Boulder, Alpine",V1,1,7,45.26085,-111.16667
"Baby Please!","Upper Falls > Memorial Falls > Northwest Region > Montana",https://www.mountainproject.com/route/113224989/baby-please,2.0,-1,Boulder,V0,1,10,46.91478,-110.69328
"Anderson's Shield","Out of Africa Boulder > District One > Hidden Lakes > Big Sky Area > Southwest Region > Montana",https://www.mountainproject.com/route/113523132/andersons-shield,2.0,-1,Boulder,V2,1,,45.26226,-111.16103
"Pete's Hueco Problem","Crack Addict > Entrance Gully > Whiskey Proper > Whiskey Gulch > Southwest Region > Montana",https://www.mountainproject.com/route/112269100/petes-hueco-problem,2.0,-1,Boulder,V0,1,15,45.88424,-112.30744
"Vicious Delicious","Locomotive Boulders > Yankee Jim > Paradise Valley > Southwest Region > Montana",https://www.mountainproject.com/route/111781070/vicious-delicious,2.0,-1,Boulder,V10,1,,45.05987,-110.78916
Chatters,"Pinhead's Playhouse > Upper Bear Trap Canyon > Madison River Area > Southwest Region > Montana",https://www.mountainproject.com/route/113734994/chatters,2.0,-1,Boulder,V3+,1,15,45.46766,-111.63925
"Could've Gone Right","Big Yellow Boulder > District Two (The Meadow) > Hidden Lakes > Big Sky Area > Southwest Region > Montana",https://www.mountainproject.com/route/113523932/couldve-gone-right,2.0,-1,"Boulder, Alpine",V7,1,,45.26228,-111.16363
"Split in the Sky","The Outer Limits Boulder > Hidden Lakes > Big Sky Area > Southwest Region > Montana",https://www.mountainproject.com/route/113553865/split-in-the-sky,2.0,-1,Boulder,V4,1,,45.25924,-111.16545
"Toes on the nose","The atrium > Wolf Butte > Northwest Region > Montana",https://www.mountainproject.com/route/112570660/toes-on-the-nose,2.0,-1,Boulder,V1,1,,47.13787,-110.49875
3-7-77,"The grave yard > Wolf Butte > Northwest Region > Montana",https://www.mountainproject.com/route/112870122/3-7-77,2.0,-1,Boulder,V1,1,14,47.13342,-110.49331
Moist,"Moist Boulder > Moist Area > Neat Rock Bouldering > Neat Rock Area > Madison River Area > Southwest Region > Montana",https://www.mountainproject.com/route/117713630/moist,2.0,-1,Boulder,V1,1,15,45.63281,-111.54471
"Julia's Hueco Problem","Crack Addict > Entrance Gully > Whiskey Proper > Whiskey Gulch > Southwest Region > Montana",https://www.mountainproject.com/route/112269107/julias-hueco-problem,2.0,-1,Boulder,V1,1,15,45.88424,-112.30744
"Friendly Vibes","The Outer Limits Boulder > Hidden Lakes > Big Sky Area > Southwest Region > Montana",https://www.mountainproject.com/route/113556941/friendly-vibes,2.0,-1,Boulder,V2,1,,45.25924,-111.16545
"Cuddly Cow","The atrium > Wolf Butte > Northwest Region > Montana",https://www.mountainproject.com/route/113766956/cuddly-cow,2.0,-1,Boulder,V2-3,1,,47.13787,-110.49875
"Seasonal Depression","Big Yellow Boulder > District Two (The Meadow) > Hidden Lakes > Big Sky Area > Southwest Region > Montana",https://www.mountainproject.com/route/113523925/seasonal-depression,2.0,-1,"Boulder, Alpine",V3,1,,45.26228,-111.16363
Cream,"Peaches Boulder > SOS Area > Cascade Creek > West Side > Gallatin Canyon > Southwest Region > Montana",https://www.mountainproject.com/route/117686447/cream,2.0,-1,"Boulder, Alpine",V1,1,8,45.39207,-111.23853
"Blueberry Project","Uzumaki Boulder > District One > Hidden Lakes > Big Sky Area > Southwest Region > Montana",https://www.mountainproject.com/route/113523191/blueberry-project,2.0,-1,Boulder,V-easy,1,,45.26245,-111.16111
"Anderson's Arete","Circus Boulder > District One > Hidden Lakes > Big Sky Area > Southwest Region > Montana",https://www.mountainproject.com/route/113523286/andersons-arete,2.0,-1,Boulder,V2,1,,45.2624,-111.16137
"Jean-Luc Picard","The Pocket > District Two (The Meadow) > Hidden Lakes > Big Sky Area > Southwest Region > Montana",https://www.mountainproject.com/route/113527259/jean-luc-picard,2.0,-1,Boulder,V5,1,,45.2623,-111.1645
"Large Farva","Hollow Earth Boulder > District Two (The Meadow) > Hidden Lakes > Big Sky Area > Southwest Region > Montana",https://www.mountainproject.com/route/113526987/large-farva,2.0,-1,Boulder,V4,1,,45.26247,-111.16439
Braeburn,"Hollow Earth Boulder > District Two (The Meadow) > Hidden Lakes > Big Sky Area > Southwest Region > Montana",https://www.mountainproject.com/route/113524400/braeburn,2.0,-1,Boulder,V3,1,,45.26247,-111.16439
"Seal the Deal","Maya's Boulder > District One > Hidden Lakes > Big Sky Area > Southwest Region > Montana",https://www.mountainproject.com/route/113523336/seal-the-deal,2.0,-1,Boulder,V4,1,,45.26237,-111.16082
"Tweedle Dum","Tweedle Area > Neat Rock Bouldering > Neat Rock Area > Madison River Area > Southwest Region > Montana",https://www.mountainproject.com/route/110289299/tweedle-dum,2.0,-1,Boulder,V3,1,15,45.63218,-111.54393
Placender,"The atrium > Wolf Butte > Northwest Region > Montana",https://www.mountainproject.com/route/112568430/placender,2.0,-1,Boulder,V1-2,1,12,47.13787,-110.49875
"The Fear","Hollow Earth Boulder > District Two (The Meadow) > Hidden Lakes > Big Sky Area > Southwest Region > Montana",https://www.mountainproject.com/route/113526932/the-fear,2.0,-1,Boulder,V2,1,,45.26247,-111.16439
"Kyle's Traverse","Circus Boulder > District One > Hidden Lakes > Big Sky Area > Southwest Region > Montana",https://www.mountainproject.com/route/113523315/kyles-traverse,2.0,-1,Boulder,V1,1,,45.2624,-111.16137
"Fruh's Face","Hollow Earth Boulder > District Two (The Meadow) > Hidden Lakes > Big Sky Area > Southwest Region > Montana",https://www.mountainproject.com/route/113524409/fruhs-face,2.0,-1,Boulder,V3,1,,45.26247,-111.16439
"The Right Way","Big Yellow Boulder > District Two (The Meadow) > Hidden Lakes > Big Sky Area > Southwest Region > Montana",https://www.mountainproject.com/route/113523956/the-right-way,2.0,-1,"Boulder, Alpine",V3,1,,45.26228,-111.16363
"Tiger Trap","Hollow Earth Boulder > District Two (The Meadow) > Hidden Lakes > Big Sky Area > Southwest Region > Montana",https://www.mountainproject.com/route/113527012/tiger-trap,2.0,-1,Boulder,V3,1,,45.26247,-111.16439
Warmup,"Warmup boulders > Memorial Falls > Northwest Region > Montana",https://www.mountainproject.com/route/113389924/warmup,2.0,-1,Boulder,V0,1,8,46.91482,-110.69302
"Vapor Banana Hawk","Lower Nunnery > The Nunnery > West Side > Gallatin Canyon > Southwest Region > Montana",https://www.mountainproject.com/route/110792884/vapor-banana-hawk,2.0,-1,Boulder,V2,1,,45.41369,-111.23123
Saetia,"Q Boulder > District Two (The Meadow) > Hidden Lakes > Big Sky Area > Southwest Region > Montana",https://www.mountainproject.com/route/113527212/saetia,2.0,-1,Boulder,V3,1,,45.26224,-111.16451
"Spread Your Wings","SYW Boulder > District One > Hidden Lakes > Big Sky Area > Southwest Region > Montana",https://www.mountainproject.com/route/113530311/spread-your-wings,2.0,-1,Boulder,V3,1,,45.26228,-111.16125
"Cherts til it hurts","The atrium > Wolf Butte > Northwest Region > Montana",https://www.mountainproject.com/route/112568716/cherts-til-it-hurts,2.0,-1,Boulder,V1,1,13,47.13787,-110.49875
"Sweet and Salty","S&S Boulder > District One > Hidden Lakes > Big Sky Area > Southwest Region > Montana",https://www.mountainproject.com/route/113532963/sweet-and-salty,2.0,-1,Boulder,V1,1,,45.26227,-111.16126
"Sender Caps","The atrium > Wolf Butte > Northwest Region > Montana",https://www.mountainproject.com/route/112568632/sender-caps,2.0,-1,Boulder,V0,1,9,47.13787,-110.49875
"Baby Losa","Lower Nunnery > The Nunnery > West Side > Gallatin Canyon > Southwest Region > Montana",https://www.mountainproject.com/route/110793066/baby-losa,2.0,-1,Boulder,V3,1,,45.41369,-111.23123
"Liter of Cola","Hollow Earth Boulder > District Two (The Meadow) > Hidden Lakes > Big Sky Area > Southwest Region > Montana",https://www.mountainproject.com/route/113526983/liter-of-cola,2.0,-1,Boulder,V3,1,,45.26247,-111.16439
"Green Polka Dots","SYW Boulder > District One > Hidden Lakes > Big Sky Area > Southwest Region > Montana",https://www.mountainproject.com/route/113532998/green-polka-dots,2.0,-1,Boulder,V0,1,,45.26228,-111.16125
"Cold hard truths","The grave yard > Wolf Butte > Northwest Region > Montana",https://www.mountainproject.com/route/112870171/cold-hard-truths,2.0,-1,Boulder,V0,1,12,47.13342,-110.49331
"Lost Kitten","Black Boulder > District Two (The Meadow) > Hidden Lakes > Big Sky Area > Southwest Region > Montana",https://www.mountainproject.com/route/113523907/lost-kitten,2.0,-1,Boulder,V2,1,,45.2624,-111.16334
Gritty,"Grit Boulder > The West Side > Whiskey Proper > Whiskey Gulch > Southwest Region > Montana",https://www.mountainproject.com/route/112269414/gritty,2.0,-1,Boulder,V2,1,8,45.88374,-112.30854
"9 to Midnight","The Blunted Boulder > District Three (The Drainage) > Hidden Lakes > Big Sky Area > Southwest Region > Montana",https://www.mountainproject.com/route/113535370/9-to-midnight,2.0,-1,"Boulder, Alpine",V1,1,10,45.26081,-111.16628
R.I.P.,"The grave yard > Wolf Butte > Northwest Region > Montana",https://www.mountainproject.com/route/112870145/rip,2.0,-1,Boulder,V0,1,14,47.13342,-110.49331
Warbird,"Warbird Boulder > District Two (The Meadow) > Hidden Lakes > Big Sky Area > Southwest Region > Montana",https://www.mountainproject.com/route/113530263/warbird,2.0,-1,Boulder,V4,1,,45.26226,-111.16462
"Smeagol's Sit","Lower Nunnery > The Nunnery > West Side > Gallatin Canyon > Southwest Region > Montana",https://www.mountainproject.com/route/111188038/smeagols-sit,2.0,-1,Boulder,V1+,1,12,45.41369,-111.23123
"S&S Variation","S&S Boulder > District One > Hidden Lakes > Big Sky Area > Southwest Region > Montana",https://www.mountainproject.com/route/113532974/ss-variation,2.0,-1,Boulder,V1,1,,45.26227,-111.16126
"The Blunted Gummy Bear","The Blunted Boulder > District Three (The Drainage) > Hidden Lakes > Big Sky Area > Southwest Region > Montana",https://www.mountainproject.com/route/113535342/the-blunted-gummy-bear,2.0,-1,"Boulder, Alpine",V1,1,16,45.26081,-111.16628
"Runaway Train","Lower Nunnery > The Nunnery > West Side > Gallatin Canyon > Southwest Region > Montana",https://www.mountainproject.com/route/110793095/runaway-train,2.0,-1,Boulder,V2,1,,45.41369,-111.23123
Duderino,"The Blunted Boulder > District Three (The Drainage) > Hidden Lakes > Big Sky Area > Southwest Region > Montana",https://www.mountainproject.com/route/113535383/duderino,2.0,-1,"Boulder, Alpine",V1+,1,10,45.26081,-111.16628
"Buffy Slab","Buffy Boulder > Warm Up Ridge Area > Whiskey Proper > Whiskey Gulch > Southwest Region > Montana",https://www.mountainproject.com/route/112269454/buffy-slab,2.0,-1,Boulder,V0,1,10,45.88386,-112.30809
"Ape index","Kootenai River > Northwest Region > Montana",https://www.mountainproject.com/route/108072488/ape-index,2.0,-1,Boulder,V2,1,10,48.44752,-115.66638
"Crack of Destiny","Upper Nunnery > The Nunnery > West Side > Gallatin Canyon > Southwest Region > Montana",https://www.mountainproject.com/route/110860011/crack-of-destiny,2.0,-1,Boulder,V0,1,,45.41259,-111.23623
"Freshly Sheared Sheep","Sheepish Boulder > Senile Gully > Whiskey Proper > Whiskey Gulch > Southwest Region > Montana",https://www.mountainproject.com/route/112269221/freshly-sheared-sheep,2.0,-1,Boulder,V0,1,10,45.88384,-112.30662
"The Cabana","Lower Nunnery > The Nunnery > West Side > Gallatin Canyon > Southwest Region > Montana",https://www.mountainproject.com/route/110793247/the-cabana,2.0,-1,Boulder,V1,1,,45.41369,-111.23123
Neat,"Lower Nunnery > The Nunnery > West Side > Gallatin Canyon > Southwest Region > Montana",https://www.mountainproject.com/route/110793086/neat,2.0,-1,Boulder,V2,1,,45.41369,-111.23123
"Bad Ass Mountaineers","Bad Ass Boulder > Senile Gully > Whiskey Proper > Whiskey Gulch > Southwest Region > Montana",https://www.mountainproject.com/route/112269246/bad-ass-mountaineers,2.0,-1,Boulder,V0-,1,12,45.88393,-112.30657
"Anonymous Faces","Upper Nunnery > The Nunnery > West Side > Gallatin Canyon > Southwest Region > Montana",https://www.mountainproject.com/route/110860023/anonymous-faces,2.0,-1,Boulder,V4,1,,45.41259,-111.23623
Pop-Tart,"Upper Nunnery > The Nunnery > West Side > Gallatin Canyon > Southwest Region > Montana",https://www.mountainproject.com/route/110868702/pop-tart,2.0,-1,Boulder,V2,1,,45.41259,-111.23623
"Pebbles But No Bam Bam","Whitewater Wall > Sagebrush Point Boulders > Greek Creek and Surroundings > Big Sky Area > Southwest Region > Montana",https://www.mountainproject.com/route/109348162/pebbles-but-no-bam-bam,2.0,-1,Boulder,V3-,1,16,45.3907,-111.20063
"Lil Kootenai Cave","Kootenai River > Northwest Region > Montana",https://www.mountainproject.com/route/108072150/lil-kootenai-cave,2.0,-1,Boulder,V3+,1,8,48.44752,-115.66638
"Pillar of Power","Upper Nunnery > The Nunnery > West Side > Gallatin Canyon > Southwest Region > Montana",https://www.mountainproject.com/route/110859982/pillar-of-power,2.0,-1,Boulder,V3-4,1,,45.41259,-111.23623
"Squiggle Fire","Upper Nunnery > The Nunnery > West Side > Gallatin Canyon > Southwest Region > Montana",https://www.mountainproject.com/route/110860136/squiggle-fire,2.0,-1,Boulder,V3-4,1,,45.41259,-111.23623
"Mickey Mantle","Upper Nunnery > The Nunnery > West Side > Gallatin Canyon > Southwest Region > Montana",https://www.mountainproject.com/route/110868571/mickey-mantle,2.0,-1,Boulder,V3-4,1,,45.41259,-111.23623
"Slab Stepper","Ballers Club Boulders > Sagebrush Point Boulders > Greek Creek and Surroundings > Big Sky Area > Southwest Region > Montana",https://www.mountainproject.com/route/110722537/slab-stepper,2.0,-1,Boulder,V0+,1,16,45.39085,-111.20029
"Little Foot","Road Slide Boulders > Sagebrush Point Boulders > Greek Creek and Surroundings > Big Sky Area > Southwest Region > Montana",https://www.mountainproject.com/route/109593759/little-foot,2.0,-1,Boulder,V4,1,16,45.39085,-111.20029
"Pony Keg","Refrigerator Block > Sagebrush Point Boulders > Greek Creek and Surroundings > Big Sky Area > Southwest Region > Montana",https://www.mountainproject.com/route/110341171/pony-keg,2.0,-1,Boulder,V2+,1,8,45.39085,-111.20029
"Turnaround Velociraptor","Ballers Club Boulders > Sagebrush Point Boulders > Greek Creek and Surroundings > Big Sky Area > Southwest Region > Montana",https://www.mountainproject.com/route/109600738/turnaround-velociraptor,2.0,-1,Boulder,V2,1,13,45.39085,-111.20029
Va-JJ,"Road Slide Boulders > Sagebrush Point Boulders > Greek Creek and Surroundings > Big Sky Area > Southwest Region > Montana",https://www.mountainproject.com/route/110045739/va-jj,2.0,-1,Boulder,V1-,1,14,45.39085,-111.20029
"Picasso's Point","Big Sky Grit > Sagebrush Point Boulders > Greek Creek and Surroundings > Big Sky Area > Southwest Region > Montana",https://www.mountainproject.com/route/110219509/picassos-point,2.0,-1,Boulder,V2,1,12,45.05998,-111.18899
"Heady Games","Ballers Club Boulders > Sagebrush Point Boulders > Greek Creek and Surroundings > Big Sky Area > Southwest Region > Montana",https://www.mountainproject.com/route/109601606/heady-games,2.0,-1,Boulder,V1+,1,20,45.39085,-111.20029
Chimpansy,"Big Sky Grit > Sagebrush Point Boulders > Greek Creek and Surroundings > Big Sky Area > Southwest Region > Montana",https://www.mountainproject.com/route/110215585/chimpansy,2.0,-1,Boulder,V1+,1,14,45.05998,-111.18899
Flipper,"Wave Wall > Sagebrush Point Boulders > Greek Creek and Surroundings > Big Sky Area > Southwest Region > Montana",https://www.mountainproject.com/route/110357334/flipper,2.0,-1,Boulder,V1-,1,14,45.39085,-111.20029
"Honk If You Love Jugs","Gaper's Gully > Sagebrush Point Boulders > Greek Creek and Surroundings > Big Sky Area > Southwest Region > Montana",https://www.mountainproject.com/route/110720666/honk-if-you-love-jugs,2.0,-1,Boulder,V0,1,12,45.39085,-111.20029
Reconnaissance,"Reconnaissance > Mile 13 Boulders > Paradise Valley > Southwest Region > Montana",https://www.mountainproject.com/route/109700908/reconnaissance,2.0,-1,Boulder,"V3+ PG13",1,12,45.17007,-110.85694
"Wild West Warm-Up","Wild West Warm-Up > Sagebrush Point Boulders > Greek Creek and Surroundings > Big Sky Area > Southwest Region > Montana",https://www.mountainproject.com/route/110341381/wild-west-warm-up,2.0,-1,Boulder,V-easy,1,14,45.39085,-111.20029
"Easy Street","Refrigerator Block > Sagebrush Point Boulders > Greek Creek and Surroundings > Big Sky Area > Southwest Region > Montana",https://www.mountainproject.com/route/110341327/easy-street,2.0,-1,Boulder,V-easy,1,10,45.39085,-111.20029
"Nitty Gritty","Big Sky Grit > Sagebrush Point Boulders > Greek Creek and Surroundings > Big Sky Area > Southwest Region > Montana",https://www.mountainproject.com/route/110341425/nitty-gritty,2.0,-1,Boulder,V2-,1,12,45.05998,-111.18899
"IPA's and Hotwings","Gaper's Gully > Sagebrush Point Boulders > Greek Creek and Surroundings > Big Sky Area > Southwest Region > Montana",https://www.mountainproject.com/route/110720833/ipas-and-hotwings,2.0,-1,Boulder,V0-1,1,12,45.39085,-111.20029
"Slopin' on the River","Road Slide Boulders > Sagebrush Point Boulders > Greek Creek and Surroundings > Big Sky Area > Southwest Region > Montana",https://www.mountainproject.com/route/109578087/slopin-on-the-river,2.0,-1,Boulder,V3,1,14,45.39085,-111.20029
CaveDweller,"Crows Nest > Sagebrush Point Boulders > Greek Creek and Surroundings > Big Sky Area > Southwest Region > Montana",https://www.mountainproject.com/route/109657489/cavedweller,2.0,-1,Boulder,V3,1,14,45.39085,-111.20029
"Comfy Cozy","Crows Nest > Sagebrush Point Boulders > Greek Creek and Surroundings > Big Sky Area > Southwest Region > Montana",https://www.mountainproject.com/route/109597147/comfy-cozy,2.0,-1,Boulder,V2,1,15,45.39085,-111.20029
"Stairway Escape","Rooftop Access > Sagebrush Point Boulders > Greek Creek and Surroundings > Big Sky Area > Southwest Region > Montana",https://www.mountainproject.com/route/109348191/stairway-escape,2.0,-1,Boulder,V1-2,1,15,45.39085,-111.20029
"Who Wants Honeycombs","Rooftop Access > Sagebrush Point Boulders > Greek Creek and Surroundings > Big Sky Area > Southwest Region > Montana",https://www.mountainproject.com/route/109348309/who-wants-honeycombs,2.0,-1,Boulder,V3-,1,10,45.39085,-111.20029
"d Orbital Splitting","Tyler's Problem Boulder > Cascade Creek > West Side > Gallatin Canyon > Southwest Region > Montana",https://www.mountainproject.com/route/107812204/d-orbital-splitting,2.0,-1,"Boulder, Alpine",V8,1,,45.3913,-111.239
"The Olfactory","Carpenter Boulder > Cascade Creek > West Side > Gallatin Canyon > Southwest Region > Montana",https://www.mountainproject.com/route/108204888/the-olfactory,2.0,-1,"Boulder, Alpine",V5+,1,,45.3913,-111.239
"Cop Out","Carpenter Boulder > Cascade Creek > West Side > Gallatin Canyon > Southwest Region > Montana",https://www.mountainproject.com/route/107812465/cop-out,2.0,-1,"Boulder, Alpine",V5,1,,45.3913,-111.239
TNT,"Explosive Boulder > Explosive Area > Cascade Creek > West Side > Gallatin Canyon > Southwest Region > Montana",https://www.mountainproject.com/route/107810011/tnt,2.0,-1,"Boulder, Alpine",V7,1,,45.3913,-111.239
"We Make A Sexy Time","Sexy Boulder > Campground Boulders > Yankee Jim > Paradise Valley > Southwest Region > Montana",https://www.mountainproject.com/route/117983842/we-make-a-sexy-time,2.0,-1,Boulder,V0-,1,10,45.18358,-110.88836
"Under Appreciated","Down Under Boulder > Campground Boulders > Yankee Jim > Paradise Valley > Southwest Region > Montana",https://www.mountainproject.com/route/118053174/under-appreciated,2.0,-1,Boulder,V1,1,10,45.18304,-110.88859
Blow,"Sexy Boulder > Campground Boulders > Yankee Jim > Paradise Valley > Southwest Region > Montana",https://www.mountainproject.com/route/117984649/blow,2.0,-1,Boulder,V1,1,10,45.18358,-110.88836
Hooker,"Sexy Boulder > Campground Boulders > Yankee Jim > Paradise Valley > Southwest Region > Montana",https://www.mountainproject.com/route/117984694/hooker,2.0,-1,Boulder,V1,1,10,45.18358,-110.88836
"Creepy Guy","Big Arete Boulder > Campground Boulders > Yankee Jim > Paradise Valley > Southwest Region > Montana",https://www.mountainproject.com/route/118012123/creepy-guy,2.0,-1,Boulder,V1,1,10,45.18373,-110.88904
"To Hook or Not To Hook","Alternative Boulder > Campground Boulders > Yankee Jim > Paradise Valley > Southwest Region > Montana",https://www.mountainproject.com/route/118053215/to-hook-or-not-to-hook,2.0,-1,Boulder,V2,1,8,45.18316,-110.88869
"Weird Dudes With Small Dogs","Big Arete Boulder > Campground Boulders > Yankee Jim > Paradise Valley > Southwest Region > Montana",https://www.mountainproject.com/route/118012151/weird-dudes-with-small-dogs,2.0,-1,Boulder,V2,1,12,45.18373,-110.88904
Panthro,"Thunder Boulders > Campground Boulders > Yankee Jim > Paradise Valley > Southwest Region > Montana",https://www.mountainproject.com/route/118012239/panthro,2.0,-1,Boulder,V4,1,10,45.18392,-110.88895
"DK's Tower","Gorilla Block > Sagebrush Point Boulders > Greek Creek and Surroundings > Big Sky Area > Southwest Region > Montana",https://www.mountainproject.com/route/109342992/dks-tower,1.7,-1,Boulder,V2-,1,12,45.39089,-111.1993
"Neat Left","Neat Boulder > Neat Rock Bouldering > Neat Rock Area > Madison River Area > Southwest Region > Montana",https://www.mountainproject.com/route/115434277/neat-left,1.5,-1,Boulder,V0,1,4,45.63263,-111.54306
"Neat Center","Neat Boulder > Neat Rock Bouldering > Neat Rock Area > Madison River Area > Southwest Region > Montana",https://www.mountainproject.com/route/115434316/neat-center,1.5,-1,Boulder,V1,1,8,45.63263,-111.54306
Tana,"Roadside Boulder > Diamond & Roadside Area > Bear Trap Road Boulders > Madison River Area > Southwest Region > Montana",https://www.mountainproject.com/route/115687372/tana,1.5,-1,Boulder,V2,1,8,45.59328,-111.56889
"Gorilla Knife Fight","Lava Pit > Cascade Creek > West Side > Gallatin Canyon > Southwest Region > Montana",https://www.mountainproject.com/route/111791576/gorilla-knife-fight,1.5,-1,"Boulder, Alpine",V10,1,,45.39144,-111.23927
Warmup,"Uzumaki Boulder > District One > Hidden Lakes > Big Sky Area > Southwest Region > Montana",https://www.mountainproject.com/route/113523898/warmup,1.5,-1,Boulder,V-easy,1,,45.26245,-111.16111
"Jungle Juice","Lower Nunnery > The Nunnery > West Side > Gallatin Canyon > Southwest Region > Montana",https://www.mountainproject.com/route/111187996/jungle-juice,1.5,-1,Boulder,V2+,1,12,45.41369,-111.23123
"Cast Iron Skillet","Whitewater Wall > Sagebrush Point Boulders > Greek Creek and Surroundings > Big Sky Area > Southwest Region > Montana",https://www.mountainproject.com/route/109244500/cast-iron-skillet,1.5,-1,Boulder,V0,1,15,45.3907,-111.20063
"Monkey Swing","Gorilla Block > Sagebrush Point Boulders > Greek Creek and Surroundings > Big Sky Area > Southwest Region > Montana",https://www.mountainproject.com/route/109244871/monkey-swing,1.5,-1,Boulder,V2,1,,45.39089,-111.1993
"Tell Me Where You Want It","Foily Boulder > Mile 13 Boulders > Paradise Valley > Southwest Region > Montana",https://www.mountainproject.com/route/109458831/tell-me-where-you-want-it,1.5,-1,Boulder,V1-2,1,6,45.16983,-110.85677
"Spoiled Milk","Refrigerator Block > Sagebrush Point Boulders > Greek Creek and Surroundings > Big Sky Area > Southwest Region > Montana",https://www.mountainproject.com/route/109331183/spoiled-milk,1.5,-1,Boulder,V1+,1,8,45.39085,-111.20029
"Baby Got Lieback","Lower Nunnery > The Nunnery > West Side > Gallatin Canyon > Southwest Region > Montana",https://www.mountainproject.com/route/111136965/baby-got-lieback,1.3,-1,Boulder,V0+,1,12,45.41369,-111.23123
"Beached Whale","Highline Trail > Glacier National Park > Northwest Region > Montana",https://www.mountainproject.com/route/117548980/beached-whale,1.0,-1,"Boulder, Alpine",V1-,1,8,47.61067,-114.35774
"Whisky in the Morning","Moonshine Boulder > New World Gulch Bouldering > Bear Canyon > Southwest Region > Montana",https://www.mountainproject.com/route/115337406/whisky-in-the-morning,1.0,-1,Boulder,V0,1,8,45.59779,-110.93559
"Open Book","Washer Wall Area > Zimmerman Park > Billings Rimrocks > South Central Region > Montana",https://www.mountainproject.com/route/113432814/open-book,1.0,-1,Boulder,V0,1,,45.80503,-108.60582
"Tyler's Route","Tyler's Problem Boulder > Cascade Creek > West Side > Gallatin Canyon > Southwest Region > Montana",https://www.mountainproject.com/route/107812183/tylers-route,1.0,-1,"Boulder, Alpine",V4-5,1,,45.3913,-111.239
"Janie's Got a Gun","Explosive Boulder > Explosive Area > Cascade Creek > West Side > Gallatin Canyon > Southwest Region > Montana",https://www.mountainproject.com/route/107810793/janies-got-a-gun,1.0,-1,"Boulder, Alpine",V2,1,,45.3913,-111.239
Crockubot,"Overhangatang Boulders > Hyalite Canyon > Southwest Region > Montana",https://www.mountainproject.com/route/117078359/crockubot,1.0,-1,Boulder,V2,1,8,45.54518,-111.04371
"Reptile Reach","Overhangatang Boulders > Hyalite Canyon > Southwest Region > Montana",https://www.mountainproject.com/route/116967029/reptile-reach,1.0,-1,Boulder,V1-,1,6,45.54518,-111.04371
"Peg Leg","Riverside Retreat > Stormcastle > Gallatin Canyon > Southwest Region > Montana",https://www.mountainproject.com/route/116959907/peg-leg,1.0,-1,Boulder,V7+,1,14,45.41566,-111.23125
Maeby,"The Corridor Boulder > Sudden Valley > End of the Road > Whiskey Gulch > Southwest Region > Montana",https://www.mountainproject.com/route/117066307/maeby,1.0,-1,Boulder,V0,1,8,45.88087,-112.2984
"Bridge Over Troubled Waters","Cow Skull Boulder > Neat Rock Bouldering > Neat Rock Area > Madison River Area > Southwest Region > Montana",https://www.mountainproject.com/route/115434635/bridge-over-troubled-waters,1.0,-1,Boulder,"V0 PG13",1,12,45.6336,-111.54685
"Dirt Burglar","Lower Nunnery > The Nunnery > West Side > Gallatin Canyon > Southwest Region > Montana",https://www.mountainproject.com/route/117800961/dirt-burglar,1.0,-1,Boulder,V0-1,1,6,45.41369,-111.23123
Bungholeo,"Cone Head Boulder > Hidden Area > Whiskey Proper > Whiskey Gulch > Southwest Region > Montana",https://www.mountainproject.com/route/115447474/bungholeo,1.0,-1,Boulder,V2,1,10,45.88323,-112.3075
"Birthday Suit","Bad Rock Canyon > Northwest Region > Montana",https://www.mountainproject.com/route/113703424/birthday-suit,1.0,-1,Boulder,V2+,1,,48.38554,-114.10253
"Easy Money","Bad Rock Canyon > Northwest Region > Montana",https://www.mountainproject.com/route/113703483/easy-money,1.0,-1,Boulder,V0,1,12,48.38554,-114.10253
"Romance on Rock","The Lost Dog Boulder > Lava Lake > West Side > Gallatin Canyon > Southwest Region > Montana",https://www.mountainproject.com/route/117358026/romance-on-rock,1.0,-1,"Boulder, Alpine",V0+,1,12,45.37949,-111.24421
"Freestyle Right","Bad Rock Canyon > Northwest Region > Montana",https://www.mountainproject.com/route/113703543/freestyle-right,1.0,-1,Boulder,V1+,1,,48.38554,-114.10253
"Freestyle Left","Bad Rock Canyon > Northwest Region > Montana",https://www.mountainproject.com/route/113703537/freestyle-left,1.0,-1,Boulder,V2,1,14,48.38554,-114.10253
Blocky,"Block Top Jr. > Lava Lake > West Side > Gallatin Canyon > Southwest Region > Montana",https://www.mountainproject.com/route/117357893/blocky,1.0,-1,"Boulder, Alpine",V0,1,15,45.37982,-111.24419
Lie,"Vicarious Boulder > Vicarious Area > Pull Out Area > Neat Rock Bouldering > Neat Rock Area > Madison River Area > Southwest Region > Montana",https://www.mountainproject.com/route/117714033/lie,1.0,-1,Boulder,V4,1,7,45.63409,-111.54366
RocknRolla,"Peaches Boulder > SOS Area > Cascade Creek > West Side > Gallatin Canyon > Southwest Region > Montana",https://www.mountainproject.com/route/117686327/rocknrolla,1.0,-1,"Boulder, Alpine",V0,1,,45.39207,-111.23853
"Space Scooter","The Outer Limits Boulder > Hidden Lakes > Big Sky Area > Southwest Region > Montana",https://www.mountainproject.com/route/113553855/space-scooter,1.0,-1,Boulder,V3,1,,45.25924,-111.16545
"Dogs Eating Dogs","Dogs Eating Dogs Boulder > Moist Area > Neat Rock Bouldering > Neat Rock Area > Madison River Area > Southwest Region > Montana",https://www.mountainproject.com/route/117713746/dogs-eating-dogs,1.0,-1,Boulder,V1,1,10,45.63299,-111.54456
"Goof Troop","The Blunted Boulder > District Three (The Drainage) > Hidden Lakes > Big Sky Area > Southwest Region > Montana",https://www.mountainproject.com/route/113535378/goof-troop,1.0,-1,"Boulder, Alpine",V1-,1,10,45.26081,-111.16628
"Kyle's Face","Maya's Boulder > District One > Hidden Lakes > Big Sky Area > Southwest Region > Montana",https://www.mountainproject.com/route/113523342/kyles-face,1.0,-1,Boulder,V0-,1,,45.26237,-111.16082
"Green Eggs and Slab","SYW Boulder > District One > Hidden Lakes > Big Sky Area > Southwest Region > Montana",https://www.mountainproject.com/route/113533899/green-eggs-and-slab,1.0,-1,Boulder,V0,1,14,45.26228,-111.16125
"A Shrubbery!!!","The atrium > Wolf Butte > Northwest Region > Montana",https://www.mountainproject.com/route/112568654/a-shrubbery,1.0,-1,Boulder,V0,1,10,47.13787,-110.49875
"Steve and Abby","Q Boulder > District Two (The Meadow) > Hidden Lakes > Big Sky Area > Southwest Region > Montana",https://www.mountainproject.com/route/113527142/steve-and-abby,1.0,-1,Boulder,V6,1,,45.26224,-111.16451
"Endless Options","The Blunted Boulder > District Three (The Drainage) > Hidden Lakes > Big Sky Area > Southwest Region > Montana",https://www.mountainproject.com/route/113535364/endless-options,1.0,-1,"Boulder, Alpine",V0-1,1,12,45.26081,-111.16628
"Pick Pocket","The atrium > Wolf Butte > Northwest Region > Montana",https://www.mountainproject.com/route/112568665/pick-pocket,1.0,-1,Boulder,V0,1,12,47.13787,-110.49875
Grit,"Grit Boulder > The West Side > Whiskey Proper > Whiskey Gulch > Southwest Region > Montana",https://www.mountainproject.com/route/112269404/grit,1.0,-1,Boulder,V0,1,8,45.88374,-112.30854
"Bread Loaf Traverse","Upper Nunnery > The Nunnery > West Side > Gallatin Canyon > Southwest Region > Montana",https://www.mountainproject.com/route/110868541/bread-loaf-traverse,1.0,-1,Boulder,V5,1,,45.41259,-111.23623
"Gapers Goin Gape","Gaper's Gully > Sagebrush Point Boulders > Greek Creek and Surroundings > Big Sky Area > Southwest Region > Montana",https://www.mountainproject.com/route/110720848/gapers-goin-gape,1.0,-1,Boulder,V0,1,12,45.39085,-111.20029
"Silverback Crack","Gorilla Block > Sagebrush Point Boulders > Greek Creek and Surroundings > Big Sky Area > Southwest Region > Montana",https://www.mountainproject.com/route/110340915/silverback-crack,1.0,-1,Boulder,V0,1,10,45.39089,-111.1993
"Rafiki's Arete","Gorilla Block > Sagebrush Point Boulders > Greek Creek and Surroundings > Big Sky Area > Southwest Region > Montana",https://www.mountainproject.com/route/110341099/rafikis-arete,1.0,-1,Boulder,V0,1,12,45.39089,-111.1993
"Be-Bop and Rocksteady","Big Sky Grit > Sagebrush Point Boulders > Greek Creek and Surroundings > Big Sky Area > Southwest Region > Montana",https://www.mountainproject.com/route/110215548/be-bop-and-rocksteady,1.0,-1,Boulder,V0-1,1,10,45.05998,-111.18899
"Tiny Tim","Tiny Tim Boulder > Sagebrush Point Boulders > Greek Creek and Surroundings > Big Sky Area > Southwest Region > Montana",https://www.mountainproject.com/route/110343541/tiny-tim,1.0,-1,Boulder,V0-1,1,7,45.39085,-111.20029
